header: 
  seq: 592
  stamp: 
    secs: 1616085238
    nsecs: 299984576
  frame_id: ''
pose: 
  xyz: 
    x: -0.19489211878810345
    y: -0.012010129962710666
    z: -0.624256063029234
  rpy: 
    roll: 3.123872333381722
    pitch: -0.03754179289736014
    yaw: 0.008105989351662624
---
header: 
  seq: 593
  stamp: 
    secs: 1616085238
    nsecs: 334254963
  frame_id: ''
pose: 
  xyz: 
    x: -0.19489211878810345
    y: -0.012010129962710666
    z: -0.624256063029234
  rpy: 
    roll: 3.123872333381722
    pitch: -0.03754179289736014
    yaw: 0.008105989351662624
---
header: 
  seq: 594
  stamp: 
    secs: 1616085238
    nsecs: 366652496
  frame_id: ''
pose: 
  xyz: 
    x: -0.1947614179465135
    y: -0.012001714801666598
    z: -0.6247266803095669
  rpy: 
    roll: 3.086736473914213
    pitch: -0.01991325848860163
    yaw: 0.005468943556572459
---
header: 
  seq: 595
  stamp: 
    secs: 1616085238
    nsecs: 400254801
  frame_id: ''
pose: 
  xyz: 
    x: -0.1947614179465135
    y: -0.012001714801666598
    z: -0.6247266803095669
  rpy: 
    roll: 3.086736473914213
    pitch: -0.01991325848860163
    yaw: 0.005468943556572459
---
header: 
  seq: 596
  stamp: 
    secs: 1616085238
    nsecs: 434320890
  frame_id: ''
pose: 
  xyz: 
    x: -0.19489211878810345
    y: -0.012010129962710666
    z: -0.624256063029234
  rpy: 
    roll: 3.123872333381722
    pitch: -0.03754179289736014
    yaw: 0.008105989351662624
---
header: 
  seq: 597
  stamp: 
    secs: 1616085238
    nsecs: 466682354
  frame_id: ''
pose: 
  xyz: 
    x: -0.19489211878810345
    y: -0.012010129962710666
    z: -0.624256063029234
  rpy: 
    roll: 3.123872333381722
    pitch: -0.03754179289736014
    yaw: 0.008105989351662624
---
header: 
  seq: 598
  stamp: 
    secs: 1616085238
    nsecs: 500097519
  frame_id: ''
pose: 
  xyz: 
    x: -0.1947614179465135
    y: -0.012001714801666598
    z: -0.6247266803095669
  rpy: 
    roll: 3.086736473914213
    pitch: -0.01991325848860163
    yaw: 0.005468943556572459
---
header: 
  seq: 599
  stamp: 
    secs: 1616085238
    nsecs: 534384457
  frame_id: ''
pose: 
  xyz: 
    x: -0.19329936091555178
    y: -0.011645596855117872
    z: -0.6181962318240098
  rpy: 
    roll: -3.0981803782706296
    pitch: -0.02320350717689875
    yaw: 0.021134125775057244
---
header: 
  seq: 600
  stamp: 
    secs: 1616085238
    nsecs: 566737809
  frame_id: ''
pose: 
  xyz: 
    x: -0.19329936091555178
    y: -0.011645596855117872
    z: -0.6181962318240098
  rpy: 
    roll: -3.0981803782706296
    pitch: -0.02320350717689875
    yaw: 0.021134125775057244
---
header: 
  seq: 601
  stamp: 
    secs: 1616085238
    nsecs: 600047488
  frame_id: ''
pose: 
  xyz: 
    x: -0.19489211878810345
    y: -0.012010129962710666
    z: -0.624256063029234
  rpy: 
    roll: 3.123872333381722
    pitch: -0.03754179289736014
    yaw: 0.008105989351662624
---
header: 
  seq: 602
  stamp: 
    secs: 1616085238
    nsecs: 634348305
  frame_id: ''
pose: 
  xyz: 
    x: -0.1931412661783136
    y: -0.011632287998611353
    z: -0.6185415875081863
  rpy: 
    roll: -3.127159840347157
    pitch: -0.003773945248110507
    yaw: 0.01860636721555875
---
header: 
  seq: 603
  stamp: 
    secs: 1616085238
    nsecs: 666651757
  frame_id: ''
pose: 
  xyz: 
    x: -0.19489211878810345
    y: -0.012010129962710666
    z: -0.624256063029234
  rpy: 
    roll: 3.123872333381722
    pitch: -0.03754179289736014
    yaw: 0.008105989351662624
---
header: 
  seq: 604
  stamp: 
    secs: 1616085238
    nsecs: 700106367
  frame_id: ''
pose: 
  xyz: 
    x: -0.19329936091555178
    y: -0.011645596855117872
    z: -0.6181962318240098
  rpy: 
    roll: -3.0981803782706296
    pitch: -0.02320350717689875
    yaw: 0.021134125775057244
---
header: 
  seq: 605
  stamp: 
    secs: 1616085238
    nsecs: 734316755
  frame_id: ''
pose: 
  xyz: 
    x: -0.19329936091555178
    y: -0.011645596855117872
    z: -0.6181962318240098
  rpy: 
    roll: -3.0981803782706296
    pitch: -0.02320350717689875
    yaw: 0.021134125775057244
---
header: 
  seq: 606
  stamp: 
    secs: 1616085238
    nsecs: 766727630
  frame_id: ''
pose: 
  xyz: 
    x: -0.19329936091555178
    y: -0.011645596855117872
    z: -0.6181962318240098
  rpy: 
    roll: -3.0981803782706296
    pitch: -0.02320350717689875
    yaw: 0.021134125775057244
---
header: 
  seq: 607
  stamp: 
    secs: 1616085238
    nsecs: 800036778
  frame_id: ''
pose: 
  xyz: 
    x: -0.19489211878810345
    y: -0.012010129962710666
    z: -0.624256063029234
  rpy: 
    roll: 3.123872333381722
    pitch: -0.03754179289736014
    yaw: 0.008105989351662624
---
header: 
  seq: 608
  stamp: 
    secs: 1616085238
    nsecs: 834298450
  frame_id: ''
pose: 
  xyz: 
    x: -0.19489211878810345
    y: -0.012010129962710666
    z: -0.624256063029234
  rpy: 
    roll: 3.123872333381722
    pitch: -0.03754179289736014
    yaw: 0.008105989351662624
---
header: 
  seq: 609
  stamp: 
    secs: 1616085238
    nsecs: 866720641
  frame_id: ''
pose: 
  xyz: 
    x: -0.19489211878810345
    y: -0.012010129962710666
    z: -0.624256063029234
  rpy: 
    roll: 3.123872333381722
    pitch: -0.03754179289736014
    yaw: 0.008105989351662624
---
header: 
  seq: 610
  stamp: 
    secs: 1616085238
    nsecs: 900103431
  frame_id: ''
pose: 
  xyz: 
    x: -0.19489211878810345
    y: -0.012010129962710666
    z: -0.624256063029234
  rpy: 
    roll: 3.123872333381722
    pitch: -0.03754179289736014
    yaw: 0.008105989351662624
---
header: 
  seq: 611
  stamp: 
    secs: 1616085238
    nsecs: 934399647
  frame_id: ''
pose: 
  xyz: 
    x: -0.19489211878810345
    y: -0.012010129962710666
    z: -0.624256063029234
  rpy: 
    roll: 3.123872333381722
    pitch: -0.03754179289736014
    yaw: 0.008105989351662624
---
header: 
  seq: 612
  stamp: 
    secs: 1616085238
    nsecs: 966551927
  frame_id: ''
pose: 
  xyz: 
    x: -0.19489211878810345
    y: -0.012010129962710666
    z: -0.624256063029234
  rpy: 
    roll: 3.123872333381722
    pitch: -0.03754179289736014
    yaw: 0.008105989351662624
---
header: 
  seq: 613
  stamp: 
    secs: 1616085239
    nsecs:    142995
  frame_id: ''
pose: 
  xyz: 
    x: -0.19489211878810345
    y: -0.012010129962710666
    z: -0.624256063029234
  rpy: 
    roll: 3.123872333381722
    pitch: -0.03754179289736014
    yaw: 0.008105989351662624
---
header: 
  seq: 614
  stamp: 
    secs: 1616085239
    nsecs:  34106955
  frame_id: ''
pose: 
  xyz: 
    x: -0.19489211878810345
    y: -0.012010129962710666
    z: -0.624256063029234
  rpy: 
    roll: 3.123872333381722
    pitch: -0.03754179289736014
    yaw: 0.008105989351662624
---
header: 
  seq: 615
  stamp: 
    secs: 1616085239
    nsecs:  66646159
  frame_id: ''
pose: 
  xyz: 
    x: -0.19489211878810345
    y: -0.012010129962710666
    z: -0.624256063029234
  rpy: 
    roll: 3.123872333381722
    pitch: -0.03754179289736014
    yaw: 0.008105989351662624
---
header: 
  seq: 616
  stamp: 
    secs: 1616085239
    nsecs: 100092365
  frame_id: ''
pose: 
  xyz: 
    x: -0.19489211878810345
    y: -0.012010129962710666
    z: -0.624256063029234
  rpy: 
    roll: 3.123872333381722
    pitch: -0.03754179289736014
    yaw: 0.008105989351662624
---
header: 
  seq: 617
  stamp: 
    secs: 1616085239
    nsecs: 134153204
  frame_id: ''
pose: 
  xyz: 
    x: -0.19489211878810345
    y: -0.012010129962710666
    z: -0.624256063029234
  rpy: 
    roll: 3.123872333381722
    pitch: -0.03754179289736014
    yaw: 0.008105989351662624
---
header: 
  seq: 618
  stamp: 
    secs: 1616085239
    nsecs: 166477961
  frame_id: ''
pose: 
  xyz: 
    x: -0.19489211878810345
    y: -0.012010129962710666
    z: -0.624256063029234
  rpy: 
    roll: 3.123872333381722
    pitch: -0.03754179289736014
    yaw: 0.008105989351662624
---
header: 
  seq: 619
  stamp: 
    secs: 1616085239
    nsecs: 200038882
  frame_id: ''
pose: 
  xyz: 
    x: -0.19489211878810345
    y: -0.012010129962710666
    z: -0.624256063029234
  rpy: 
    roll: 3.123872333381722
    pitch: -0.03754179289736014
    yaw: 0.008105989351662624
---
header: 
  seq: 620
  stamp: 
    secs: 1616085239
    nsecs: 234157583
  frame_id: ''
pose: 
  xyz: 
    x: -0.19489211878810345
    y: -0.012010129962710666
    z: -0.624256063029234
  rpy: 
    roll: 3.123872333381722
    pitch: -0.03754179289736014
    yaw: 0.008105989351662624
---
header: 
  seq: 621
  stamp: 
    secs: 1616085239
    nsecs: 266535929
  frame_id: ''
pose: 
  xyz: 
    x: -0.19489211878810345
    y: -0.012010129962710666
    z: -0.624256063029234
  rpy: 
    roll: 3.123872333381722
    pitch: -0.03754179289736014
    yaw: 0.008105989351662624
---
header: 
  seq: 622
  stamp: 
    secs: 1616085239
    nsecs: 300065587
  frame_id: ''
pose: 
  xyz: 
    x: -0.19489211878810345
    y: -0.012010129962710666
    z: -0.624256063029234
  rpy: 
    roll: 3.123872333381722
    pitch: -0.03754179289736014
    yaw: 0.008105989351662624
---
header: 
  seq: 623
  stamp: 
    secs: 1616085239
    nsecs: 334272021
  frame_id: ''
pose: 
  xyz: 
    x: -0.19489211878810345
    y: -0.012010129962710666
    z: -0.624256063029234
  rpy: 
    roll: 3.123872333381722
    pitch: -0.03754179289736014
    yaw: 0.008105989351662624
---
header: 
  seq: 624
  stamp: 
    secs: 1616085239
    nsecs: 366500593
  frame_id: ''
pose: 
  xyz: 
    x: -0.19489211878810345
    y: -0.012010129962710666
    z: -0.624256063029234
  rpy: 
    roll: 3.123872333381722
    pitch: -0.03754179289736014
    yaw: 0.008105989351662624
---
header: 
  seq: 625
  stamp: 
    secs: 1616085239
    nsecs: 400008765
  frame_id: ''
pose: 
  xyz: 
    x: -0.19489211878810345
    y: -0.012010129962710666
    z: -0.624256063029234
  rpy: 
    roll: 3.123872333381722
    pitch: -0.03754179289736014
    yaw: 0.008105989351662624
---
header: 
  seq: 626
  stamp: 
    secs: 1616085239
    nsecs: 434399071
  frame_id: ''
pose: 
  xyz: 
    x: -0.19489211878810345
    y: -0.012010129962710666
    z: -0.624256063029234
  rpy: 
    roll: 3.123872333381722
    pitch: -0.03754179289736014
    yaw: 0.008105989351662624
---
header: 
  seq: 627
  stamp: 
    secs: 1616085239
    nsecs: 466702558
  frame_id: ''
pose: 
  xyz: 
    x: -0.19489211878810345
    y: -0.012010129962710666
    z: -0.624256063029234
  rpy: 
    roll: 3.123872333381722
    pitch: -0.03754179289736014
    yaw: 0.008105989351662624
---
header: 
  seq: 628
  stamp: 
    secs: 1616085239
    nsecs: 499883033
  frame_id: ''
pose: 
  xyz: 
    x: -0.19489211878810345
    y: -0.012010129962710666
    z: -0.624256063029234
  rpy: 
    roll: 3.123872333381722
    pitch: -0.03754179289736014
    yaw: 0.008105989351662624
---
header: 
  seq: 629
  stamp: 
    secs: 1616085239
    nsecs: 534374984
  frame_id: ''
pose: 
  xyz: 
    x: -0.19489211878810345
    y: -0.012010129962710666
    z: -0.624256063029234
  rpy: 
    roll: 3.123872333381722
    pitch: -0.03754179289736014
    yaw: 0.008105989351662624
---
header: 
  seq: 630
  stamp: 
    secs: 1616085239
    nsecs: 566671660
  frame_id: ''
pose: 
  xyz: 
    x: -0.19489211878810345
    y: -0.012010129962710666
    z: -0.624256063029234
  rpy: 
    roll: 3.123872333381722
    pitch: -0.03754179289736014
    yaw: 0.008105989351662624
---
header: 
  seq: 631
  stamp: 
    secs: 1616085239
    nsecs: 600008306
  frame_id: ''
pose: 
  xyz: 
    x: -0.19489211878810345
    y: -0.012010129962710666
    z: -0.624256063029234
  rpy: 
    roll: 3.123872333381722
    pitch: -0.03754179289736014
    yaw: 0.008105989351662624
---
header: 
  seq: 632
  stamp: 
    secs: 1616085239
    nsecs: 634298293
  frame_id: ''
pose: 
  xyz: 
    x: -0.19489211878810345
    y: -0.012010129962710666
    z: -0.624256063029234
  rpy: 
    roll: 3.123872333381722
    pitch: -0.03754179289736014
    yaw: 0.008105989351662624
---
header: 
  seq: 633
  stamp: 
    secs: 1616085239
    nsecs: 666694290
  frame_id: ''
pose: 
  xyz: 
    x: -0.19329936091555178
    y: -0.011645596855117872
    z: -0.6181962318240098
  rpy: 
    roll: -3.0981803782706296
    pitch: -0.02320350717689875
    yaw: 0.021134125775057244
---
header: 
  seq: 634
  stamp: 
    secs: 1616085239
    nsecs: 699984871
  frame_id: ''
pose: 
  xyz: 
    x: -0.19489211878810345
    y: -0.012010129962710666
    z: -0.624256063029234
  rpy: 
    roll: 3.123872333381722
    pitch: -0.03754179289736014
    yaw: 0.008105989351662624
---
header: 
  seq: 635
  stamp: 
    secs: 1616085239
    nsecs: 734247199
  frame_id: ''
pose: 
  xyz: 
    x: -0.19489211878810345
    y: -0.012010129962710666
    z: -0.624256063029234
  rpy: 
    roll: 3.123872333381722
    pitch: -0.03754179289736014
    yaw: 0.008105989351662624
---
header: 
  seq: 636
  stamp: 
    secs: 1616085239
    nsecs: 766588067
  frame_id: ''
pose: 
  xyz: 
    x: -0.19489211878810345
    y: -0.012010129962710666
    z: -0.624256063029234
  rpy: 
    roll: 3.123872333381722
    pitch: -0.03754179289736014
    yaw: 0.008105989351662624
---
header: 
  seq: 637
  stamp: 
    secs: 1616085239
    nsecs: 800025879
  frame_id: ''
pose: 
  xyz: 
    x: -0.1931412661783136
    y: -0.011632287998611353
    z: -0.6185415875081863
  rpy: 
    roll: -3.127159840347157
    pitch: -0.003773945248110507
    yaw: 0.01860636721555875
---
header: 
  seq: 638
  stamp: 
    secs: 1616085239
    nsecs: 834188547
  frame_id: ''
pose: 
  xyz: 
    x: -0.19329936091555178
    y: -0.011645596855117872
    z: -0.6181962318240098
  rpy: 
    roll: -3.0981803782706296
    pitch: -0.02320350717689875
    yaw: 0.021134125775057244
---
header: 
  seq: 639
  stamp: 
    secs: 1616085239
    nsecs: 866744741
  frame_id: ''
pose: 
  xyz: 
    x: -0.19329936091555178
    y: -0.011645596855117872
    z: -0.6181962318240098
  rpy: 
    roll: -3.0981803782706296
    pitch: -0.02320350717689875
    yaw: 0.021134125775057244
---
header: 
  seq: 640
  stamp: 
    secs: 1616085239
    nsecs: 900052733
  frame_id: ''
pose: 
  xyz: 
    x: -0.19329936091555178
    y: -0.011645596855117872
    z: -0.6181962318240098
  rpy: 
    roll: -3.0981803782706296
    pitch: -0.02320350717689875
    yaw: 0.021134125775057244
---
header: 
  seq: 641
  stamp: 
    secs: 1616085239
    nsecs: 934180956
  frame_id: ''
pose: 
  xyz: 
    x: -0.19489211878810345
    y: -0.012010129962710666
    z: -0.624256063029234
  rpy: 
    roll: 3.123872333381722
    pitch: -0.03754179289736014
    yaw: 0.008105989351662624
---
header: 
  seq: 642
  stamp: 
    secs: 1616085239
    nsecs: 966673141
  frame_id: ''
pose: 
  xyz: 
    x: -0.19329936091555178
    y: -0.011645596855117872
    z: -0.6181962318240098
  rpy: 
    roll: -3.0981803782706296
    pitch: -0.02320350717689875
    yaw: 0.021134125775057244
---
header: 
  seq: 643
  stamp: 
    secs: 1616085240
    nsecs:     64572
  frame_id: ''
pose: 
  xyz: 
    x: -0.19329936091555178
    y: -0.011645596855117872
    z: -0.6181962318240098
  rpy: 
    roll: -3.0981803782706296
    pitch: -0.02320350717689875
    yaw: 0.021134125775057244
---
header: 
  seq: 644
  stamp: 
    secs: 1616085240
    nsecs:  34292439
  frame_id: ''
pose: 
  xyz: 
    x: -0.19329936091555178
    y: -0.011645596855117872
    z: -0.6181962318240098
  rpy: 
    roll: -3.0981803782706296
    pitch: -0.02320350717689875
    yaw: 0.021134125775057244
---
header: 
  seq: 645
  stamp: 
    secs: 1616085240
    nsecs:  66770224
  frame_id: ''
pose: 
  xyz: 
    x: -0.1931412661783136
    y: -0.011632287998611353
    z: -0.6185415875081863
  rpy: 
    roll: -3.127159840347157
    pitch: -0.003773945248110507
    yaw: 0.01860636721555875
---
header: 
  seq: 646
  stamp: 
    secs: 1616085240
    nsecs: 100200715
  frame_id: ''
pose: 
  xyz: 
    x: -0.1931412661783136
    y: -0.011632287998611353
    z: -0.6185415875081863
  rpy: 
    roll: -3.127159840347157
    pitch: -0.003773945248110507
    yaw: 0.01860636721555875
---
header: 
  seq: 647
  stamp: 
    secs: 1616085240
    nsecs: 134523156
  frame_id: ''
pose: 
  xyz: 
    x: -0.1931412661783136
    y: -0.011632287998611353
    z: -0.6185415875081863
  rpy: 
    roll: -3.127159840347157
    pitch: -0.003773945248110507
    yaw: 0.01860636721555875
---
header: 
  seq: 648
  stamp: 
    secs: 1616085240
    nsecs: 166763652
  frame_id: ''
pose: 
  xyz: 
    x: -0.19329936091555178
    y: -0.011645596855117872
    z: -0.6181962318240098
  rpy: 
    roll: -3.0981803782706296
    pitch: -0.02320350717689875
    yaw: 0.021134125775057244
---
header: 
  seq: 649
  stamp: 
    secs: 1616085240
    nsecs: 200052535
  frame_id: ''
pose: 
  xyz: 
    x: -0.19329936091555178
    y: -0.011645596855117872
    z: -0.6181962318240098
  rpy: 
    roll: -3.0981803782706296
    pitch: -0.02320350717689875
    yaw: 0.021134125775057244
---
header: 
  seq: 650
  stamp: 
    secs: 1616085240
    nsecs: 234347270
  frame_id: ''
pose: 
  xyz: 
    x: -0.19329936091555178
    y: -0.011645596855117872
    z: -0.6181962318240098
  rpy: 
    roll: -3.0981803782706296
    pitch: -0.02320350717689875
    yaw: 0.021134125775057244
---
header: 
  seq: 651
  stamp: 
    secs: 1616085240
    nsecs: 267221062
  frame_id: ''
pose: 
  xyz: 
    x: -0.19329936091555178
    y: -0.011645596855117872
    z: -0.6181962318240098
  rpy: 
    roll: -3.0981803782706296
    pitch: -0.02320350717689875
    yaw: 0.021134125775057244
---
header: 
  seq: 652
  stamp: 
    secs: 1616085240
    nsecs: 300041666
  frame_id: ''
pose: 
  xyz: 
    x: -0.19329936091555178
    y: -0.011645596855117872
    z: -0.6181962318240098
  rpy: 
    roll: -3.0981803782706296
    pitch: -0.02320350717689875
    yaw: 0.021134125775057244
---
header: 
  seq: 653
  stamp: 
    secs: 1616085240
    nsecs: 334233565
  frame_id: ''
pose: 
  xyz: 
    x: -0.19329936091555178
    y: -0.011645596855117872
    z: -0.6181962318240098
  rpy: 
    roll: -3.0981803782706296
    pitch: -0.02320350717689875
    yaw: 0.021134125775057244
---
header: 
  seq: 654
  stamp: 
    secs: 1616085240
    nsecs: 367121158
  frame_id: ''
pose: 
  xyz: 
    x: -0.19329936091555178
    y: -0.011645596855117872
    z: -0.6181962318240098
  rpy: 
    roll: -3.0981803782706296
    pitch: -0.02320350717689875
    yaw: 0.021134125775057244
---
header: 
  seq: 655
  stamp: 
    secs: 1616085240
    nsecs: 400116653
  frame_id: ''
pose: 
  xyz: 
    x: -0.19329936091555178
    y: -0.011645596855117872
    z: -0.6181962318240098
  rpy: 
    roll: -3.0981803782706296
    pitch: -0.02320350717689875
    yaw: 0.021134125775057244
---
header: 
  seq: 656
  stamp: 
    secs: 1616085240
    nsecs: 435786997
  frame_id: ''
pose: 
  xyz: 
    x: -0.1931412661783136
    y: -0.011632287998611353
    z: -0.6185415875081863
  rpy: 
    roll: -3.127159840347157
    pitch: -0.003773945248110507
    yaw: 0.01860636721555875
---
header: 
  seq: 657
  stamp: 
    secs: 1616085240
    nsecs: 466822341
  frame_id: ''
pose: 
  xyz: 
    x: -0.19329936091555178
    y: -0.011645596855117872
    z: -0.6181962318240098
  rpy: 
    roll: -3.0981803782706296
    pitch: -0.02320350717689875
    yaw: 0.021134125775057244
---
header: 
  seq: 658
  stamp: 
    secs: 1616085240
    nsecs: 500140840
  frame_id: ''
pose: 
  xyz: 
    x: -0.19329936091555178
    y: -0.011645596855117872
    z: -0.6181962318240098
  rpy: 
    roll: -3.0981803782706296
    pitch: -0.02320350717689875
    yaw: 0.021134125775057244
---
header: 
  seq: 659
  stamp: 
    secs: 1616085240
    nsecs: 534378792
  frame_id: ''
pose: 
  xyz: 
    x: -0.19329936091555178
    y: -0.011645596855117872
    z: -0.6181962318240098
  rpy: 
    roll: -3.0981803782706296
    pitch: -0.02320350717689875
    yaw: 0.021134125775057244
---
header: 
  seq: 660
  stamp: 
    secs: 1616085240
    nsecs: 566677617
  frame_id: ''
pose: 
  xyz: 
    x: -0.1947614179465135
    y: -0.012001714801666598
    z: -0.6247266803095669
  rpy: 
    roll: 3.086736473914213
    pitch: -0.01991325848860163
    yaw: 0.005468943556572459
---
header: 
  seq: 661
  stamp: 
    secs: 1616085240
    nsecs: 599940577
  frame_id: ''
pose: 
  xyz: 
    x: -0.19329936091555178
    y: -0.011645596855117872
    z: -0.6181962318240098
  rpy: 
    roll: -3.0981803782706296
    pitch: -0.02320350717689875
    yaw: 0.021134125775057244
---
header: 
  seq: 662
  stamp: 
    secs: 1616085240
    nsecs: 634451459
  frame_id: ''
pose: 
  xyz: 
    x: -0.19329936091555178
    y: -0.011645596855117872
    z: -0.6181962318240098
  rpy: 
    roll: -3.0981803782706296
    pitch: -0.02320350717689875
    yaw: 0.021134125775057244
---
header: 
  seq: 663
  stamp: 
    secs: 1616085240
    nsecs: 666872025
  frame_id: ''
pose: 
  xyz: 
    x: -0.1947614179465135
    y: -0.012001714801666598
    z: -0.6247266803095669
  rpy: 
    roll: 3.086736473914213
    pitch: -0.01991325848860163
    yaw: 0.005468943556572459
---
header: 
  seq: 664
  stamp: 
    secs: 1616085240
    nsecs: 700044956
  frame_id: ''
pose: 
  xyz: 
    x: -0.19329936091555178
    y: -0.011645596855117872
    z: -0.6181962318240098
  rpy: 
    roll: -3.0981803782706296
    pitch: -0.02320350717689875
    yaw: 0.021134125775057244
---
header: 
  seq: 665
  stamp: 
    secs: 1616085240
    nsecs: 734261066
  frame_id: ''
pose: 
  xyz: 
    x: -0.19489211878810345
    y: -0.012010129962710666
    z: -0.624256063029234
  rpy: 
    roll: 3.123872333381722
    pitch: -0.03754179289736014
    yaw: 0.008105989351662624
---
header: 
  seq: 666
  stamp: 
    secs: 1616085240
    nsecs: 766648854
  frame_id: ''
pose: 
  xyz: 
    x: -0.19489211878810345
    y: -0.012010129962710666
    z: -0.624256063029234
  rpy: 
    roll: 3.123872333381722
    pitch: -0.03754179289736014
    yaw: 0.008105989351662624
---
header: 
  seq: 667
  stamp: 
    secs: 1616085240
    nsecs: 800163301
  frame_id: ''
pose: 
  xyz: 
    x: -0.19489211878810345
    y: -0.012010129962710666
    z: -0.624256063029234
  rpy: 
    roll: 3.123872333381722
    pitch: -0.03754179289736014
    yaw: 0.008105989351662624
---
header: 
  seq: 668
  stamp: 
    secs: 1616085240
    nsecs: 834341306
  frame_id: ''
pose: 
  xyz: 
    x: -0.19489211878810345
    y: -0.012010129962710666
    z: -0.624256063029234
  rpy: 
    roll: 3.123872333381722
    pitch: -0.03754179289736014
    yaw: 0.008105989351662624
---
header: 
  seq: 669
  stamp: 
    secs: 1616085240
    nsecs: 866772127
  frame_id: ''
pose: 
  xyz: 
    x: -0.19489211878810345
    y: -0.012010129962710666
    z: -0.624256063029234
  rpy: 
    roll: 3.123872333381722
    pitch: -0.03754179289736014
    yaw: 0.008105989351662624
---
header: 
  seq: 670
  stamp: 
    secs: 1616085240
    nsecs: 899965178
  frame_id: ''
pose: 
  xyz: 
    x: -0.19489211878810345
    y: -0.012010129962710666
    z: -0.624256063029234
  rpy: 
    roll: 3.123872333381722
    pitch: -0.03754179289736014
    yaw: 0.008105989351662624
---
header: 
  seq: 671
  stamp: 
    secs: 1616085240
    nsecs: 934331992
  frame_id: ''
pose: 
  xyz: 
    x: -0.19329936091555178
    y: -0.011645596855117872
    z: -0.6181962318240098
  rpy: 
    roll: -3.0981803782706296
    pitch: -0.02320350717689875
    yaw: 0.021134125775057244
---
header: 
  seq: 672
  stamp: 
    secs: 1616085240
    nsecs: 966566301
  frame_id: ''
pose: 
  xyz: 
    x: -0.19489211878810345
    y: -0.012010129962710666
    z: -0.624256063029234
  rpy: 
    roll: 3.123872333381722
    pitch: -0.03754179289736014
    yaw: 0.008105989351662624
---
header: 
  seq: 673
  stamp: 
    secs: 1616085240
    nsecs: 999984644
  frame_id: ''
pose: 
  xyz: 
    x: -0.19489211878810345
    y: -0.012010129962710666
    z: -0.624256063029234
  rpy: 
    roll: 3.123872333381722
    pitch: -0.03754179289736014
    yaw: 0.008105989351662624
---
header: 
  seq: 674
  stamp: 
    secs: 1616085241
    nsecs:  34389540
  frame_id: ''
pose: 
  xyz: 
    x: -0.19489211878810345
    y: -0.012010129962710666
    z: -0.624256063029234
  rpy: 
    roll: 3.123872333381722
    pitch: -0.03754179289736014
    yaw: 0.008105989351662624
---
header: 
  seq: 675
  stamp: 
    secs: 1616085241
    nsecs:  66778412
  frame_id: ''
pose: 
  xyz: 
    x: -0.19489211878810345
    y: -0.012010129962710666
    z: -0.624256063029234
  rpy: 
    roll: 3.123872333381722
    pitch: -0.03754179289736014
    yaw: 0.008105989351662624
---
header: 
  seq: 676
  stamp: 
    secs: 1616085241
    nsecs:  99997822
  frame_id: ''
pose: 
  xyz: 
    x: -0.19329936091555178
    y: -0.011645596855117872
    z: -0.6181962318240098
  rpy: 
    roll: -3.0981803782706296
    pitch: -0.02320350717689875
    yaw: 0.021134125775057244
---
header: 
  seq: 677
  stamp: 
    secs: 1616085241
    nsecs: 135049615
  frame_id: ''
pose: 
  xyz: 
    x: -0.19489211878810345
    y: -0.012010129962710666
    z: -0.624256063029234
  rpy: 
    roll: 3.123872333381722
    pitch: -0.03754179289736014
    yaw: 0.008105989351662624
---
header: 
  seq: 678
  stamp: 
    secs: 1616085241
    nsecs: 166717083
  frame_id: ''
pose: 
  xyz: 
    x: -0.19489211878810345
    y: -0.012010129962710666
    z: -0.624256063029234
  rpy: 
    roll: 3.123872333381722
    pitch: -0.03754179289736014
    yaw: 0.008105989351662624
---
header: 
  seq: 679
  stamp: 
    secs: 1616085241
    nsecs: 200015923
  frame_id: ''
pose: 
  xyz: 
    x: -0.19489211878810345
    y: -0.012010129962710666
    z: -0.624256063029234
  rpy: 
    roll: 3.123872333381722
    pitch: -0.03754179289736014
    yaw: 0.008105989351662624
---
header: 
  seq: 680
  stamp: 
    secs: 1616085241
    nsecs: 234273326
  frame_id: ''
pose: 
  xyz: 
    x: -0.19489211878810345
    y: -0.012010129962710666
    z: -0.624256063029234
  rpy: 
    roll: 3.123872333381722
    pitch: -0.03754179289736014
    yaw: 0.008105989351662624
---
header: 
  seq: 681
  stamp: 
    secs: 1616085241
    nsecs: 266604354
  frame_id: ''
pose: 
  xyz: 
    x: -0.19489211878810345
    y: -0.012010129962710666
    z: -0.624256063029234
  rpy: 
    roll: 3.123872333381722
    pitch: -0.03754179289736014
    yaw: 0.008105989351662624
---
header: 
  seq: 682
  stamp: 
    secs: 1616085241
    nsecs: 300110219
  frame_id: ''
pose: 
  xyz: 
    x: -0.19489211878810345
    y: -0.012010129962710666
    z: -0.624256063029234
  rpy: 
    roll: 3.123872333381722
    pitch: -0.03754179289736014
    yaw: 0.008105989351662624
---
header: 
  seq: 683
  stamp: 
    secs: 1616085241
    nsecs: 334124565
  frame_id: ''
pose: 
  xyz: 
    x: -0.19489211878810345
    y: -0.012010129962710666
    z: -0.624256063029234
  rpy: 
    roll: 3.123872333381722
    pitch: -0.03754179289736014
    yaw: 0.008105989351662624
---
header: 
  seq: 684
  stamp: 
    secs: 1616085241
    nsecs: 366629726
  frame_id: ''
pose: 
  xyz: 
    x: -0.19489211878810345
    y: -0.012010129962710666
    z: -0.624256063029234
  rpy: 
    roll: 3.123872333381722
    pitch: -0.03754179289736014
    yaw: 0.008105989351662624
---
header: 
  seq: 685
  stamp: 
    secs: 1616085241
    nsecs: 400022754
  frame_id: ''
pose: 
  xyz: 
    x: -0.19489211878810345
    y: -0.012010129962710666
    z: -0.624256063029234
  rpy: 
    roll: 3.123872333381722
    pitch: -0.03754179289736014
    yaw: 0.008105989351662624
---
header: 
  seq: 686
  stamp: 
    secs: 1616085241
    nsecs: 434325273
  frame_id: ''
pose: 
  xyz: 
    x: -0.19489211878810345
    y: -0.012010129962710666
    z: -0.624256063029234
  rpy: 
    roll: 3.123872333381722
    pitch: -0.03754179289736014
    yaw: 0.008105989351662624
---
header: 
  seq: 687
  stamp: 
    secs: 1616085241
    nsecs: 466629029
  frame_id: ''
pose: 
  xyz: 
    x: -0.19489211878810345
    y: -0.012010129962710666
    z: -0.624256063029234
  rpy: 
    roll: 3.123872333381722
    pitch: -0.03754179289736014
    yaw: 0.008105989351662624
---
header: 
  seq: 688
  stamp: 
    secs: 1616085241
    nsecs: 500178722
  frame_id: ''
pose: 
  xyz: 
    x: -0.1947614179465135
    y: -0.012001714801666598
    z: -0.6247266803095669
  rpy: 
    roll: 3.086736473914213
    pitch: -0.01991325848860163
    yaw: 0.005468943556572459
---
header: 
  seq: 689
  stamp: 
    secs: 1616085241
    nsecs: 534432317
  frame_id: ''
pose: 
  xyz: 
    x: -0.19329936091555178
    y: -0.011645596855117872
    z: -0.6181962318240098
  rpy: 
    roll: -3.0981803782706296
    pitch: -0.02320350717689875
    yaw: 0.021134125775057244
---
header: 
  seq: 690
  stamp: 
    secs: 1616085241
    nsecs: 566650901
  frame_id: ''
pose: 
  xyz: 
    x: -0.19489211878810345
    y: -0.012010129962710666
    z: -0.624256063029234
  rpy: 
    roll: 3.123872333381722
    pitch: -0.03754179289736014
    yaw: 0.008105989351662624
---
header: 
  seq: 691
  stamp: 
    secs: 1616085241
    nsecs: 600193718
  frame_id: ''
pose: 
  xyz: 
    x: -0.19329936091555178
    y: -0.011645596855117872
    z: -0.6181962318240098
  rpy: 
    roll: -3.0981803782706296
    pitch: -0.02320350717689875
    yaw: 0.021134125775057244
---
header: 
  seq: 692
  stamp: 
    secs: 1616085241
    nsecs: 634209708
  frame_id: ''
pose: 
  xyz: 
    x: -0.19489211878810345
    y: -0.012010129962710666
    z: -0.624256063029234
  rpy: 
    roll: 3.123872333381722
    pitch: -0.03754179289736014
    yaw: 0.008105989351662624
---
header: 
  seq: 693
  stamp: 
    secs: 1616085241
    nsecs: 666715372
  frame_id: ''
pose: 
  xyz: 
    x: -0.19489211878810345
    y: -0.012010129962710666
    z: -0.624256063029234
  rpy: 
    roll: 3.123872333381722
    pitch: -0.03754179289736014
    yaw: 0.008105989351662624
---
header: 
  seq: 694
  stamp: 
    secs: 1616085241
    nsecs: 700037667
  frame_id: ''
pose: 
  xyz: 
    x: -0.19489211878810345
    y: -0.012010129962710666
    z: -0.624256063029234
  rpy: 
    roll: 3.123872333381722
    pitch: -0.03754179289736014
    yaw: 0.008105989351662624
---
header: 
  seq: 695
  stamp: 
    secs: 1616085241
    nsecs: 734397340
  frame_id: ''
pose: 
  xyz: 
    x: -0.19489211878810345
    y: -0.012010129962710666
    z: -0.624256063029234
  rpy: 
    roll: 3.123872333381722
    pitch: -0.03754179289736014
    yaw: 0.008105989351662624
---
header: 
  seq: 696
  stamp: 
    secs: 1616085241
    nsecs: 766687404
  frame_id: ''
pose: 
  xyz: 
    x: -0.19489211878810345
    y: -0.012010129962710666
    z: -0.624256063029234
  rpy: 
    roll: 3.123872333381722
    pitch: -0.03754179289736014
    yaw: 0.008105989351662624
---
header: 
  seq: 697
  stamp: 
    secs: 1616085241
    nsecs: 800129497
  frame_id: ''
pose: 
  xyz: 
    x: -0.19489211878810345
    y: -0.012010129962710666
    z: -0.624256063029234
  rpy: 
    roll: 3.123872333381722
    pitch: -0.03754179289736014
    yaw: 0.008105989351662624
---
header: 
  seq: 698
  stamp: 
    secs: 1616085241
    nsecs: 834412396
  frame_id: ''
pose: 
  xyz: 
    x: -0.19489211878810345
    y: -0.012010129962710666
    z: -0.624256063029234
  rpy: 
    roll: 3.123872333381722
    pitch: -0.03754179289736014
    yaw: 0.008105989351662624
---
header: 
  seq: 699
  stamp: 
    secs: 1616085241
    nsecs: 866969687
  frame_id: ''
pose: 
  xyz: 
    x: -0.1947614179465135
    y: -0.012001714801666598
    z: -0.6247266803095669
  rpy: 
    roll: 3.086736473914213
    pitch: -0.01991325848860163
    yaw: 0.005468943556572459
---
header: 
  seq: 700
  stamp: 
    secs: 1616085241
    nsecs: 900086737
  frame_id: ''
pose: 
  xyz: 
    x: -0.19489211878810345
    y: -0.012010129962710666
    z: -0.624256063029234
  rpy: 
    roll: 3.123872333381722
    pitch: -0.03754179289736014
    yaw: 0.008105989351662624
---
header: 
  seq: 701
  stamp: 
    secs: 1616085241
    nsecs: 934297065
  frame_id: ''
pose: 
  xyz: 
    x: -0.19489211878810345
    y: -0.012010129962710666
    z: -0.624256063029234
  rpy: 
    roll: 3.123872333381722
    pitch: -0.03754179289736014
    yaw: 0.008105989351662624
---
header: 
  seq: 702
  stamp: 
    secs: 1616085241
    nsecs: 966728162
  frame_id: ''
pose: 
  xyz: 
    x: -0.19329936091555178
    y: -0.011645596855117872
    z: -0.6181962318240098
  rpy: 
    roll: -3.0981803782706296
    pitch: -0.02320350717689875
    yaw: 0.021134125775057244
---
header: 
  seq: 703
  stamp: 
    secs: 1616085242
    nsecs:    129232
  frame_id: ''
pose: 
  xyz: 
    x: -0.19489211878810345
    y: -0.012010129962710666
    z: -0.624256063029234
  rpy: 
    roll: 3.123872333381722
    pitch: -0.03754179289736014
    yaw: 0.008105989351662624
---
header: 
  seq: 704
  stamp: 
    secs: 1616085242
    nsecs:  33316108
  frame_id: ''
pose: 
  xyz: 
    x: -0.19489211878810345
    y: -0.012010129962710666
    z: -0.624256063029234
  rpy: 
    roll: 3.123872333381722
    pitch: -0.03754179289736014
    yaw: 0.008105989351662624
---
header: 
  seq: 705
  stamp: 
    secs: 1616085242
    nsecs:  66642953
  frame_id: ''
pose: 
  xyz: 
    x: -0.19489211878810345
    y: -0.012010129962710666
    z: -0.624256063029234
  rpy: 
    roll: 3.123872333381722
    pitch: -0.03754179289736014
    yaw: 0.008105989351662624
---
header: 
  seq: 706
  stamp: 
    secs: 1616085242
    nsecs: 100141645
  frame_id: ''
pose: 
  xyz: 
    x: -0.19489211878810345
    y: -0.012010129962710666
    z: -0.624256063029234
  rpy: 
    roll: 3.123872333381722
    pitch: -0.03754179289736014
    yaw: 0.008105989351662624
---
header: 
  seq: 707
  stamp: 
    secs: 1616085242
    nsecs: 133498705
  frame_id: ''
pose: 
  xyz: 
    x: -0.1947614179465135
    y: -0.012001714801666598
    z: -0.6247266803095669
  rpy: 
    roll: 3.086736473914213
    pitch: -0.01991325848860163
    yaw: 0.005468943556572459
---
header: 
  seq: 708
  stamp: 
    secs: 1616085242
    nsecs: 166670907
  frame_id: ''
pose: 
  xyz: 
    x: -0.19489211878810345
    y: -0.012010129962710666
    z: -0.624256063029234
  rpy: 
    roll: 3.123872333381722
    pitch: -0.03754179289736014
    yaw: 0.008105989351662624
---
header: 
  seq: 709
  stamp: 
    secs: 1616085242
    nsecs: 200097811
  frame_id: ''
pose: 
  xyz: 
    x: -0.19489211878810345
    y: -0.012010129962710666
    z: -0.624256063029234
  rpy: 
    roll: 3.123872333381722
    pitch: -0.03754179289736014
    yaw: 0.008105989351662624
---
header: 
  seq: 710
  stamp: 
    secs: 1616085242
    nsecs: 233305219
  frame_id: ''
pose: 
  xyz: 
    x: -0.19489211878810345
    y: -0.012010129962710666
    z: -0.624256063029234
  rpy: 
    roll: 3.123872333381722
    pitch: -0.03754179289736014
    yaw: 0.008105989351662624
---
header: 
  seq: 711
  stamp: 
    secs: 1616085242
    nsecs: 266690837
  frame_id: ''
pose: 
  xyz: 
    x: -0.19329936091555178
    y: -0.011645596855117872
    z: -0.6181962318240098
  rpy: 
    roll: -3.0981803782706296
    pitch: -0.02320350717689875
    yaw: 0.021134125775057244
---
header: 
  seq: 712
  stamp: 
    secs: 1616085242
    nsecs: 300037785
  frame_id: ''
pose: 
  xyz: 
    x: -0.19489211878810345
    y: -0.012010129962710666
    z: -0.624256063029234
  rpy: 
    roll: 3.123872333381722
    pitch: -0.03754179289736014
    yaw: 0.008105989351662624
---
header: 
  seq: 713
  stamp: 
    secs: 1616085242
    nsecs: 333378222
  frame_id: ''
pose: 
  xyz: 
    x: -0.19489211878810345
    y: -0.012010129962710666
    z: -0.624256063029234
  rpy: 
    roll: 3.123872333381722
    pitch: -0.03754179289736014
    yaw: 0.008105989351662624
---
header: 
  seq: 714
  stamp: 
    secs: 1616085242
    nsecs: 366713870
  frame_id: ''
pose: 
  xyz: 
    x: -0.1947614179465135
    y: -0.012001714801666598
    z: -0.6247266803095669
  rpy: 
    roll: 3.086736473914213
    pitch: -0.01991325848860163
    yaw: 0.005468943556572459
---
header: 
  seq: 715
  stamp: 
    secs: 1616085242
    nsecs: 400135271
  frame_id: ''
pose: 
  xyz: 
    x: -0.19329936091555178
    y: -0.011645596855117872
    z: -0.6181962318240098
  rpy: 
    roll: -3.0981803782706296
    pitch: -0.02320350717689875
    yaw: 0.021134125775057244
---
header: 
  seq: 716
  stamp: 
    secs: 1616085242
    nsecs: 433306281
  frame_id: ''
pose: 
  xyz: 
    x: -0.19489211878810345
    y: -0.012010129962710666
    z: -0.624256063029234
  rpy: 
    roll: 3.123872333381722
    pitch: -0.03754179289736014
    yaw: 0.008105989351662624
---
header: 
  seq: 717
  stamp: 
    secs: 1616085242
    nsecs: 466705083
  frame_id: ''
pose: 
  xyz: 
    x: -0.19489211878810345
    y: -0.012010129962710666
    z: -0.624256063029234
  rpy: 
    roll: 3.123872333381722
    pitch: -0.03754179289736014
    yaw: 0.008105989351662624
---
header: 
  seq: 718
  stamp: 
    secs: 1616085242
    nsecs: 500084481
  frame_id: ''
pose: 
  xyz: 
    x: -0.19489211878810345
    y: -0.012010129962710666
    z: -0.624256063029234
  rpy: 
    roll: 3.123872333381722
    pitch: -0.03754179289736014
    yaw: 0.008105989351662624
---
header: 
  seq: 719
  stamp: 
    secs: 1616085242
    nsecs: 533451878
  frame_id: ''
pose: 
  xyz: 
    x: -0.19489211878810345
    y: -0.012010129962710666
    z: -0.624256063029234
  rpy: 
    roll: 3.123872333381722
    pitch: -0.03754179289736014
    yaw: 0.008105989351662624
---
header: 
  seq: 720
  stamp: 
    secs: 1616085242
    nsecs: 566706731
  frame_id: ''
pose: 
  xyz: 
    x: -0.19489211878810345
    y: -0.012010129962710666
    z: -0.624256063029234
  rpy: 
    roll: 3.123872333381722
    pitch: -0.03754179289736014
    yaw: 0.008105989351662624
---
header: 
  seq: 721
  stamp: 
    secs: 1616085242
    nsecs: 601513612
  frame_id: ''
pose: 
  xyz: 
    x: -0.19489211878810345
    y: -0.012010129962710666
    z: -0.624256063029234
  rpy: 
    roll: 3.123872333381722
    pitch: -0.03754179289736014
    yaw: 0.008105989351662624
---
header: 
  seq: 722
  stamp: 
    secs: 1616085242
    nsecs: 633416506
  frame_id: ''
pose: 
  xyz: 
    x: -0.19489211878810345
    y: -0.012010129962710666
    z: -0.624256063029234
  rpy: 
    roll: 3.123872333381722
    pitch: -0.03754179289736014
    yaw: 0.008105989351662624
---
header: 
  seq: 723
  stamp: 
    secs: 1616085242
    nsecs: 667370280
  frame_id: ''
pose: 
  xyz: 
    x: -0.19329936091555178
    y: -0.011645596855117872
    z: -0.6181962318240098
  rpy: 
    roll: -3.0981803782706296
    pitch: -0.02320350717689875
    yaw: 0.021134125775057244
---
header: 
  seq: 724
  stamp: 
    secs: 1616085242
    nsecs: 700480760
  frame_id: ''
pose: 
  xyz: 
    x: -0.19489211878810345
    y: -0.012010129962710666
    z: -0.624256063029234
  rpy: 
    roll: 3.123872333381722
    pitch: -0.03754179289736014
    yaw: 0.008105989351662624
---
header: 
  seq: 725
  stamp: 
    secs: 1616085242
    nsecs: 733568251
  frame_id: ''
pose: 
  xyz: 
    x: -0.19329936091555178
    y: -0.011645596855117872
    z: -0.6181962318240098
  rpy: 
    roll: -3.0981803782706296
    pitch: -0.02320350717689875
    yaw: 0.021134125775057244
---
header: 
  seq: 726
  stamp: 
    secs: 1616085242
    nsecs: 766683208
  frame_id: ''
pose: 
  xyz: 
    x: -0.19489211878810345
    y: -0.012010129962710666
    z: -0.624256063029234
  rpy: 
    roll: 3.123872333381722
    pitch: -0.03754179289736014
    yaw: 0.008105989351662624
---
header: 
  seq: 727
  stamp: 
    secs: 1616085242
    nsecs: 800568690
  frame_id: ''
pose: 
  xyz: 
    x: -0.19489211878810345
    y: -0.012010129962710666
    z: -0.624256063029234
  rpy: 
    roll: 3.123872333381722
    pitch: -0.03754179289736014
    yaw: 0.008105989351662624
---
header: 
  seq: 728
  stamp: 
    secs: 1616085242
    nsecs: 833374089
  frame_id: ''
pose: 
  xyz: 
    x: -0.19489211878810345
    y: -0.012010129962710666
    z: -0.624256063029234
  rpy: 
    roll: 3.123872333381722
    pitch: -0.03754179289736014
    yaw: 0.008105989351662624
---
header: 
  seq: 729
  stamp: 
    secs: 1616085242
    nsecs: 867890612
  frame_id: ''
pose: 
  xyz: 
    x: -0.19329936091555178
    y: -0.011645596855117872
    z: -0.6181962318240098
  rpy: 
    roll: -3.0981803782706296
    pitch: -0.02320350717689875
    yaw: 0.021134125775057244
---
header: 
  seq: 730
  stamp: 
    secs: 1616085242
    nsecs: 900204827
  frame_id: ''
pose: 
  xyz: 
    x: -0.19329936091555178
    y: -0.011645596855117872
    z: -0.6181962318240098
  rpy: 
    roll: -3.0981803782706296
    pitch: -0.02320350717689875
    yaw: 0.021134125775057244
---
header: 
  seq: 731
  stamp: 
    secs: 1616085242
    nsecs: 934606029
  frame_id: ''
pose: 
  xyz: 
    x: -0.19489211878810345
    y: -0.012010129962710666
    z: -0.624256063029234
  rpy: 
    roll: 3.123872333381722
    pitch: -0.03754179289736014
    yaw: 0.008105989351662624
---
header: 
  seq: 732
  stamp: 
    secs: 1616085242
    nsecs: 966840599
  frame_id: ''
pose: 
  xyz: 
    x: -0.19489211878810345
    y: -0.012010129962710666
    z: -0.624256063029234
  rpy: 
    roll: 3.123872333381722
    pitch: -0.03754179289736014
    yaw: 0.008105989351662624
---
header: 
  seq: 733
  stamp: 
    secs: 1616085243
    nsecs:   1774078
  frame_id: ''
pose: 
  xyz: 
    x: -0.19489211878810345
    y: -0.012010129962710666
    z: -0.624256063029234
  rpy: 
    roll: 3.123872333381722
    pitch: -0.03754179289736014
    yaw: 0.008105989351662624
---
header: 
  seq: 734
  stamp: 
    secs: 1616085243
    nsecs:  36482148
  frame_id: ''
pose: 
  xyz: 
    x: -0.19489211878810345
    y: -0.012010129962710666
    z: -0.624256063029234
  rpy: 
    roll: 3.123872333381722
    pitch: -0.03754179289736014
    yaw: 0.008105989351662624
---
header: 
  seq: 735
  stamp: 
    secs: 1616085243
    nsecs:  66637365
  frame_id: ''
pose: 
  xyz: 
    x: -0.1947614179465135
    y: -0.012001714801666598
    z: -0.6247266803095669
  rpy: 
    roll: 3.086736473914213
    pitch: -0.01991325848860163
    yaw: 0.005468943556572459
---
header: 
  seq: 736
  stamp: 
    secs: 1616085243
    nsecs: 100122312
  frame_id: ''
pose: 
  xyz: 
    x: -0.19489211878810345
    y: -0.012010129962710666
    z: -0.624256063029234
  rpy: 
    roll: 3.123872333381722
    pitch: -0.03754179289736014
    yaw: 0.008105989351662624
---
header: 
  seq: 737
  stamp: 
    secs: 1616085243
    nsecs: 134367198
  frame_id: ''
pose: 
  xyz: 
    x: -0.19489211878810345
    y: -0.012010129962710666
    z: -0.624256063029234
  rpy: 
    roll: 3.123872333381722
    pitch: -0.03754179289736014
    yaw: 0.008105989351662624
---
header: 
  seq: 738
  stamp: 
    secs: 1616085243
    nsecs: 166808935
  frame_id: ''
pose: 
  xyz: 
    x: -0.19489211878810345
    y: -0.012010129962710666
    z: -0.624256063029234
  rpy: 
    roll: 3.123872333381722
    pitch: -0.03754179289736014
    yaw: 0.008105989351662624
---
header: 
  seq: 739
  stamp: 
    secs: 1616085243
    nsecs: 200226376
  frame_id: ''
pose: 
  xyz: 
    x: -0.19489211878810345
    y: -0.012010129962710666
    z: -0.624256063029234
  rpy: 
    roll: 3.123872333381722
    pitch: -0.03754179289736014
    yaw: 0.008105989351662624
---
header: 
  seq: 740
  stamp: 
    secs: 1616085243
    nsecs: 233392822
  frame_id: ''
pose: 
  xyz: 
    x: -0.19489211878810345
    y: -0.012010129962710666
    z: -0.624256063029234
  rpy: 
    roll: 3.123872333381722
    pitch: -0.03754179289736014
    yaw: 0.008105989351662624
---
header: 
  seq: 741
  stamp: 
    secs: 1616085243
    nsecs: 315450709
  frame_id: ''
pose: 
  xyz: 
    x: -0.19489211878810345
    y: -0.012010129962710666
    z: -0.624256063029234
  rpy: 
    roll: 3.123872333381722
    pitch: -0.03754179289736014
    yaw: 0.008105989351662624
---
header: 
  seq: 742
  stamp: 
    secs: 1616085243
    nsecs: 397131640
  frame_id: ''
pose: 
  xyz: 
    x: -0.19489211878810345
    y: -0.012010129962710666
    z: -0.624256063029234
  rpy: 
    roll: 3.123872333381722
    pitch: -0.03754179289736014
    yaw: 0.008105989351662624
---
header: 
  seq: 743
  stamp: 
    secs: 1616085243
    nsecs: 473411932
  frame_id: ''
pose: 
  xyz: 
    x: -0.19489211878810345
    y: -0.012010129962710666
    z: -0.624256063029234
  rpy: 
    roll: 3.123872333381722
    pitch: -0.03754179289736014
    yaw: 0.008105989351662624
---
header: 
  seq: 744
  stamp: 
    secs: 1616085243
    nsecs: 538795205
  frame_id: ''
pose: 
  xyz: 
    x: -0.19329936091555178
    y: -0.011645596855117872
    z: -0.6181962318240098
  rpy: 
    roll: -3.0981803782706296
    pitch: -0.02320350717689875
    yaw: 0.021134125775057244
---
header: 
  seq: 745
  stamp: 
    secs: 1616085243
    nsecs: 606771026
  frame_id: ''
pose: 
  xyz: 
    x: -0.19329936091555178
    y: -0.011645596855117872
    z: -0.6181962318240098
  rpy: 
    roll: -3.0981803782706296
    pitch: -0.02320350717689875
    yaw: 0.021134125775057244
---
header: 
  seq: 746
  stamp: 
    secs: 1616085243
    nsecs: 673049314
  frame_id: ''
pose: 
  xyz: 
    x: -0.19489211878810345
    y: -0.012010129962710666
    z: -0.624256063029234
  rpy: 
    roll: 3.123872333381722
    pitch: -0.03754179289736014
    yaw: 0.008105989351662624
---
header: 
  seq: 747
  stamp: 
    secs: 1616085243
    nsecs: 740352908
  frame_id: ''
pose: 
  xyz: 
    x: -0.19489211878810345
    y: -0.012010129962710666
    z: -0.624256063029234
  rpy: 
    roll: 3.123872333381722
    pitch: -0.03754179289736014
    yaw: 0.008105989351662624
---
header: 
  seq: 748
  stamp: 
    secs: 1616085243
    nsecs: 808454631
  frame_id: ''
pose: 
  xyz: 
    x: -0.19489211878810345
    y: -0.012010129962710666
    z: -0.624256063029234
  rpy: 
    roll: 3.123872333381722
    pitch: -0.03754179289736014
    yaw: 0.008105989351662624
---
header: 
  seq: 749
  stamp: 
    secs: 1616085243
    nsecs: 873044480
  frame_id: ''
pose: 
  xyz: 
    x: -0.19489211878810345
    y: -0.012010129962710666
    z: -0.624256063029234
  rpy: 
    roll: 3.123872333381722
    pitch: -0.03754179289736014
    yaw: 0.008105989351662624
---
header: 
  seq: 750
  stamp: 
    secs: 1616085243
    nsecs: 943095700
  frame_id: ''
pose: 
  xyz: 
    x: -0.19489211878810345
    y: -0.012010129962710666
    z: -0.624256063029234
  rpy: 
    roll: 3.123872333381722
    pitch: -0.03754179289736014
    yaw: 0.008105989351662624
---
header: 
  seq: 751
  stamp: 
    secs: 1616085244
    nsecs:   8002037
  frame_id: ''
pose: 
  xyz: 
    x: -0.19329936091555178
    y: -0.011645596855117872
    z: -0.6181962318240098
  rpy: 
    roll: -3.0981803782706296
    pitch: -0.02320350717689875
    yaw: 0.021134125775057244
---
header: 
  seq: 752
  stamp: 
    secs: 1616085244
    nsecs:  75060425
  frame_id: ''
pose: 
  xyz: 
    x: -0.19329936091555178
    y: -0.011645596855117872
    z: -0.6181962318240098
  rpy: 
    roll: -3.0981803782706296
    pitch: -0.02320350717689875
    yaw: 0.021134125775057244
---
header: 
  seq: 753
  stamp: 
    secs: 1616085244
    nsecs: 140147745
  frame_id: ''
pose: 
  xyz: 
    x: -0.19489211878810345
    y: -0.012010129962710666
    z: -0.624256063029234
  rpy: 
    roll: 3.123872333381722
    pitch: -0.03754179289736014
    yaw: 0.008105989351662624
---
header: 
  seq: 754
  stamp: 
    secs: 1616085244
    nsecs: 208051518
  frame_id: ''
pose: 
  xyz: 
    x: -0.19329936091555178
    y: -0.011645596855117872
    z: -0.6181962318240098
  rpy: 
    roll: -3.0981803782706296
    pitch: -0.02320350717689875
    yaw: 0.021134125775057244
---
header: 
  seq: 755
  stamp: 
    secs: 1616085244
    nsecs: 276673243
  frame_id: ''
pose: 
  xyz: 
    x: -0.19489211878810345
    y: -0.012010129962710666
    z: -0.624256063029234
  rpy: 
    roll: 3.123872333381722
    pitch: -0.03754179289736014
    yaw: 0.008105989351662624
---
header: 
  seq: 756
  stamp: 
    secs: 1616085244
    nsecs: 339553211
  frame_id: ''
pose: 
  xyz: 
    x: -0.19489211878810345
    y: -0.012010129962710666
    z: -0.624256063029234
  rpy: 
    roll: 3.123872333381722
    pitch: -0.03754179289736014
    yaw: 0.008105989351662624
---
header: 
  seq: 757
  stamp: 
    secs: 1616085244
    nsecs: 410536583
  frame_id: ''
pose: 
  xyz: 
    x: -0.19489211878810345
    y: -0.012010129962710666
    z: -0.624256063029234
  rpy: 
    roll: 3.123872333381722
    pitch: -0.03754179289736014
    yaw: 0.008105989351662624
---
header: 
  seq: 758
  stamp: 
    secs: 1616085244
    nsecs: 475390160
  frame_id: ''
pose: 
  xyz: 
    x: -0.19489211878810345
    y: -0.012010129962710666
    z: -0.624256063029234
  rpy: 
    roll: 3.123872333381722
    pitch: -0.03754179289736014
    yaw: 0.008105989351662624
---
header: 
  seq: 759
  stamp: 
    secs: 1616085244
    nsecs: 540181318
  frame_id: ''
pose: 
  xyz: 
    x: -0.19329936091555178
    y: -0.011645596855117872
    z: -0.6181962318240098
  rpy: 
    roll: -3.0981803782706296
    pitch: -0.02320350717689875
    yaw: 0.021134125775057244
---
header: 
  seq: 760
  stamp: 
    secs: 1616085244
    nsecs: 606323139
  frame_id: ''
pose: 
  xyz: 
    x: -0.19489211878810345
    y: -0.012010129962710666
    z: -0.624256063029234
  rpy: 
    roll: 3.123872333381722
    pitch: -0.03754179289736014
    yaw: 0.008105989351662624
---
header: 
  seq: 761
  stamp: 
    secs: 1616085244
    nsecs: 676311439
  frame_id: ''
pose: 
  xyz: 
    x: -0.19489211878810345
    y: -0.012010129962710666
    z: -0.624256063029234
  rpy: 
    roll: 3.123872333381722
    pitch: -0.03754179289736014
    yaw: 0.008105989351662624
---
header: 
  seq: 762
  stamp: 
    secs: 1616085244
    nsecs: 740206780
  frame_id: ''
pose: 
  xyz: 
    x: -0.19489211878810345
    y: -0.012010129962710666
    z: -0.624256063029234
  rpy: 
    roll: 3.123872333381722
    pitch: -0.03754179289736014
    yaw: 0.008105989351662624
---
header: 
  seq: 763
  stamp: 
    secs: 1616085244
    nsecs: 809570259
  frame_id: ''
pose: 
  xyz: 
    x: -0.19329936091555178
    y: -0.011645596855117872
    z: -0.6181962318240098
  rpy: 
    roll: -3.0981803782706296
    pitch: -0.02320350717689875
    yaw: 0.021134125775057244
---
header: 
  seq: 764
  stamp: 
    secs: 1616085244
    nsecs: 876972658
  frame_id: ''
pose: 
  xyz: 
    x: -0.19489211878810345
    y: -0.012010129962710666
    z: -0.624256063029234
  rpy: 
    roll: 3.123872333381722
    pitch: -0.03754179289736014
    yaw: 0.008105989351662624
---
header: 
  seq: 765
  stamp: 
    secs: 1616085244
    nsecs: 939976173
  frame_id: ''
pose: 
  xyz: 
    x: -0.19489211878810345
    y: -0.012010129962710666
    z: -0.624256063029234
  rpy: 
    roll: 3.123872333381722
    pitch: -0.03754179289736014
    yaw: 0.008105989351662624
---
header: 
  seq: 766
  stamp: 
    secs: 1616085245
    nsecs:   7425349
  frame_id: ''
pose: 
  xyz: 
    x: -0.19329936091555178
    y: -0.011645596855117872
    z: -0.6181962318240098
  rpy: 
    roll: -3.0981803782706296
    pitch: -0.02320350717689875
    yaw: 0.021134125775057244
---
header: 
  seq: 767
  stamp: 
    secs: 1616085245
    nsecs:  73804768
  frame_id: ''
pose: 
  xyz: 
    x: -0.19329936091555178
    y: -0.011645596855117872
    z: -0.6181962318240098
  rpy: 
    roll: -3.0981803782706296
    pitch: -0.02320350717689875
    yaw: 0.021134125775057244
---
header: 
  seq: 768
  stamp: 
    secs: 1616085245
    nsecs: 143449994
  frame_id: ''
pose: 
  xyz: 
    x: -0.19329936091555178
    y: -0.011645596855117872
    z: -0.6181962318240098
  rpy: 
    roll: -3.0981803782706296
    pitch: -0.02320350717689875
    yaw: 0.021134125775057244
---
header: 
  seq: 769
  stamp: 
    secs: 1616085245
    nsecs: 207101753
  frame_id: ''
pose: 
  xyz: 
    x: -0.19489211878810345
    y: -0.012010129962710666
    z: -0.624256063029234
  rpy: 
    roll: 3.123872333381722
    pitch: -0.03754179289736014
    yaw: 0.008105989351662624
---
header: 
  seq: 770
  stamp: 
    secs: 1616085245
    nsecs: 275590930
  frame_id: ''
pose: 
  xyz: 
    x: -0.19489211878810345
    y: -0.012010129962710666
    z: -0.624256063029234
  rpy: 
    roll: 3.123872333381722
    pitch: -0.03754179289736014
    yaw: 0.008105989351662624
---
header: 
  seq: 771
  stamp: 
    secs: 1616085245
    nsecs: 343215563
  frame_id: ''
pose: 
  xyz: 
    x: -0.19489211878810345
    y: -0.012010129962710666
    z: -0.624256063029234
  rpy: 
    roll: 3.123872333381722
    pitch: -0.03754179289736014
    yaw: 0.008105989351662624
---
header: 
  seq: 772
  stamp: 
    secs: 1616085245
    nsecs: 409966293
  frame_id: ''
pose: 
  xyz: 
    x: -0.19329936091555178
    y: -0.011645596855117872
    z: -0.6181962318240098
  rpy: 
    roll: -3.0981803782706296
    pitch: -0.02320350717689875
    yaw: 0.021134125775057244
---
header: 
  seq: 773
  stamp: 
    secs: 1616085245
    nsecs: 475663641
  frame_id: ''
pose: 
  xyz: 
    x: -0.19329936091555178
    y: -0.011645596855117872
    z: -0.6181962318240098
  rpy: 
    roll: -3.0981803782706296
    pitch: -0.02320350717689875
    yaw: 0.021134125775057244
---
header: 
  seq: 774
  stamp: 
    secs: 1616085245
    nsecs: 540505284
  frame_id: ''
pose: 
  xyz: 
    x: -0.19489211878810345
    y: -0.012010129962710666
    z: -0.624256063029234
  rpy: 
    roll: 3.123872333381722
    pitch: -0.03754179289736014
    yaw: 0.008105989351662624
---
header: 
  seq: 775
  stamp: 
    secs: 1616085245
    nsecs: 609220538
  frame_id: ''
pose: 
  xyz: 
    x: -0.19489211878810345
    y: -0.012010129962710666
    z: -0.624256063029234
  rpy: 
    roll: 3.123872333381722
    pitch: -0.03754179289736014
    yaw: 0.008105989351662624
---
header: 
  seq: 776
  stamp: 
    secs: 1616085245
    nsecs: 676306819
  frame_id: ''
pose: 
  xyz: 
    x: -0.19329936091555178
    y: -0.011645596855117872
    z: -0.6181962318240098
  rpy: 
    roll: -3.0981803782706296
    pitch: -0.02320350717689875
    yaw: 0.021134125775057244
---
header: 
  seq: 777
  stamp: 
    secs: 1616085245
    nsecs: 741813105
  frame_id: ''
pose: 
  xyz: 
    x: -0.19489211878810345
    y: -0.012010129962710666
    z: -0.624256063029234
  rpy: 
    roll: 3.123872333381722
    pitch: -0.03754179289736014
    yaw: 0.008105989351662624
---
header: 
  seq: 778
  stamp: 
    secs: 1616085245
    nsecs: 809087925
  frame_id: ''
pose: 
  xyz: 
    x: -0.19489211878810345
    y: -0.012010129962710666
    z: -0.624256063029234
  rpy: 
    roll: 3.123872333381722
    pitch: -0.03754179289736014
    yaw: 0.008105989351662624
---
header: 
  seq: 779
  stamp: 
    secs: 1616085245
    nsecs: 873426371
  frame_id: ''
pose: 
  xyz: 
    x: -0.19489211878810345
    y: -0.012010129962710666
    z: -0.624256063029234
  rpy: 
    roll: 3.123872333381722
    pitch: -0.03754179289736014
    yaw: 0.008105989351662624
---
header: 
  seq: 780
  stamp: 
    secs: 1616085245
    nsecs: 941199451
  frame_id: ''
pose: 
  xyz: 
    x: -0.19489211878810345
    y: -0.012010129962710666
    z: -0.624256063029234
  rpy: 
    roll: 3.123872333381722
    pitch: -0.03754179289736014
    yaw: 0.008105989351662624
---
header: 
  seq: 781
  stamp: 
    secs: 1616085246
    nsecs:   7111691
  frame_id: ''
pose: 
  xyz: 
    x: -0.19489211878810345
    y: -0.012010129962710666
    z: -0.624256063029234
  rpy: 
    roll: 3.123872333381722
    pitch: -0.03754179289736014
    yaw: 0.008105989351662624
---
header: 
  seq: 782
  stamp: 
    secs: 1616085246
    nsecs:  74119497
  frame_id: ''
pose: 
  xyz: 
    x: -0.19329936091555178
    y: -0.011645596855117872
    z: -0.6181962318240098
  rpy: 
    roll: -3.0981803782706296
    pitch: -0.02320350717689875
    yaw: 0.021134125775057244
---
header: 
  seq: 783
  stamp: 
    secs: 1616085246
    nsecs: 141677650
  frame_id: ''
pose: 
  xyz: 
    x: -0.19489211878810345
    y: -0.012010129962710666
    z: -0.624256063029234
  rpy: 
    roll: 3.123872333381722
    pitch: -0.03754179289736014
    yaw: 0.008105989351662624
---
header: 
  seq: 784
  stamp: 
    secs: 1616085246
    nsecs: 209719270
  frame_id: ''
pose: 
  xyz: 
    x: -0.19329936091555178
    y: -0.011645596855117872
    z: -0.6181962318240098
  rpy: 
    roll: -3.0981803782706296
    pitch: -0.02320350717689875
    yaw: 0.021134125775057244
---
header: 
  seq: 785
  stamp: 
    secs: 1616085246
    nsecs: 275204586
  frame_id: ''
pose: 
  xyz: 
    x: -0.19489211878810345
    y: -0.012010129962710666
    z: -0.624256063029234
  rpy: 
    roll: 3.123872333381722
    pitch: -0.03754179289736014
    yaw: 0.008105989351662624
---
header: 
  seq: 786
  stamp: 
    secs: 1616085246
    nsecs: 343688393
  frame_id: ''
pose: 
  xyz: 
    x: -0.19329936091555178
    y: -0.011645596855117872
    z: -0.6181962318240098
  rpy: 
    roll: -3.0981803782706296
    pitch: -0.02320350717689875
    yaw: 0.021134125775057244
---
header: 
  seq: 787
  stamp: 
    secs: 1616085246
    nsecs: 410344348
  frame_id: ''
pose: 
  xyz: 
    x: -0.19329936091555178
    y: -0.011645596855117872
    z: -0.6181962318240098
  rpy: 
    roll: -3.0981803782706296
    pitch: -0.02320350717689875
    yaw: 0.021134125775057244
---
header: 
  seq: 788
  stamp: 
    secs: 1616085246
    nsecs: 474625837
  frame_id: ''
pose: 
  xyz: 
    x: -0.19329936091555178
    y: -0.011645596855117872
    z: -0.6181962318240098
  rpy: 
    roll: -3.0981803782706296
    pitch: -0.02320350717689875
    yaw: 0.021134125775057244
---
header: 
  seq: 789
  stamp: 
    secs: 1616085246
    nsecs: 541747561
  frame_id: ''
pose: 
  xyz: 
    x: -0.19489211878810345
    y: -0.012010129962710666
    z: -0.624256063029234
  rpy: 
    roll: 3.123872333381722
    pitch: -0.03754179289736014
    yaw: 0.008105989351662624
---
header: 
  seq: 790
  stamp: 
    secs: 1616085246
    nsecs: 607288573
  frame_id: ''
pose: 
  xyz: 
    x: -0.19489211878810345
    y: -0.012010129962710666
    z: -0.624256063029234
  rpy: 
    roll: 3.123872333381722
    pitch: -0.03754179289736014
    yaw: 0.008105989351662624
---
header: 
  seq: 791
  stamp: 
    secs: 1616085246
    nsecs: 674018061
  frame_id: ''
pose: 
  xyz: 
    x: -0.19329936091555178
    y: -0.011645596855117872
    z: -0.6181962318240098
  rpy: 
    roll: -3.0981803782706296
    pitch: -0.02320350717689875
    yaw: 0.021134125775057244
---
header: 
  seq: 792
  stamp: 
    secs: 1616085246
    nsecs: 740472514
  frame_id: ''
pose: 
  xyz: 
    x: -0.19489211878810345
    y: -0.012010129962710666
    z: -0.624256063029234
  rpy: 
    roll: 3.123872333381722
    pitch: -0.03754179289736014
    yaw: 0.008105989351662624
---
header: 
  seq: 793
  stamp: 
    secs: 1616085246
    nsecs: 808870853
  frame_id: ''
pose: 
  xyz: 
    x: -0.19489211878810345
    y: -0.012010129962710666
    z: -0.624256063029234
  rpy: 
    roll: 3.123872333381722
    pitch: -0.03754179289736014
    yaw: 0.008105989351662624
---
header: 
  seq: 794
  stamp: 
    secs: 1616085246
    nsecs: 872918130
  frame_id: ''
pose: 
  xyz: 
    x: -0.19329936091555178
    y: -0.011645596855117872
    z: -0.6181962318240098
  rpy: 
    roll: -3.0981803782706296
    pitch: -0.02320350717689875
    yaw: 0.021134125775057244
---
header: 
  seq: 795
  stamp: 
    secs: 1616085246
    nsecs: 941431290
  frame_id: ''
pose: 
  xyz: 
    x: -0.19489211878810345
    y: -0.012010129962710666
    z: -0.624256063029234
  rpy: 
    roll: 3.123872333381722
    pitch: -0.03754179289736014
    yaw: 0.008105989351662624
---
header: 
  seq: 796
  stamp: 
    secs: 1616085247
    nsecs:   7801890
  frame_id: ''
pose: 
  xyz: 
    x: -0.19329936091555178
    y: -0.011645596855117872
    z: -0.6181962318240098
  rpy: 
    roll: -3.0981803782706296
    pitch: -0.02320350717689875
    yaw: 0.021134125775057244
---
header: 
  seq: 797
  stamp: 
    secs: 1616085247
    nsecs:  73872519
  frame_id: ''
pose: 
  xyz: 
    x: -0.19489211878810345
    y: -0.012010129962710666
    z: -0.624256063029234
  rpy: 
    roll: 3.123872333381722
    pitch: -0.03754179289736014
    yaw: 0.008105989351662624
---
header: 
  seq: 798
  stamp: 
    secs: 1616085247
    nsecs: 141116974
  frame_id: ''
pose: 
  xyz: 
    x: -0.19489211878810345
    y: -0.012010129962710666
    z: -0.624256063029234
  rpy: 
    roll: 3.123872333381722
    pitch: -0.03754179289736014
    yaw: 0.008105989351662624
---
header: 
  seq: 799
  stamp: 
    secs: 1616085247
    nsecs: 205711712
  frame_id: ''
pose: 
  xyz: 
    x: -0.19329936091555178
    y: -0.011645596855117872
    z: -0.6181962318240098
  rpy: 
    roll: -3.0981803782706296
    pitch: -0.02320350717689875
    yaw: 0.021134125775057244
---
header: 
  seq: 800
  stamp: 
    secs: 1616085247
    nsecs: 274527778
  frame_id: ''
pose: 
  xyz: 
