header: 
  seq: 4103
  stamp: 
    secs: 1616084957
    nsecs: 374712423
  frame_id: ''
pose: 
  xyz: 
    x: -0.20921622063589285
    y: -0.011905924931112278
    z: -0.6222275093377718
  rpy: 
    roll: 3.1123152677722397
    pitch: 0.019815102411185455
    yaw: 0.08484752785350747
---
header: 
  seq: 4104
  stamp: 
    secs: 1616084957
    nsecs: 438253993
  frame_id: ''
pose: 
  xyz: 
    x: -0.20921622063589285
    y: -0.011905924931112278
    z: -0.6222275093377718
  rpy: 
    roll: 3.1123152677722397
    pitch: 0.019815102411185455
    yaw: 0.08484752785350747
---
header: 
  seq: 4105
  stamp: 
    secs: 1616084957
    nsecs: 504766715
  frame_id: ''
pose: 
  xyz: 
    x: -0.20921622063589285
    y: -0.011905924931112278
    z: -0.6222275093377718
  rpy: 
    roll: 3.1123152677722397
    pitch: 0.019815102411185455
    yaw: 0.08484752785350747
---
header: 
  seq: 4106
  stamp: 
    secs: 1616084957
    nsecs: 576762402
  frame_id: ''
pose: 
  xyz: 
    x: -0.20921622063589285
    y: -0.011905924931112278
    z: -0.6222275093377718
  rpy: 
    roll: 3.1123152677722397
    pitch: 0.019815102411185455
    yaw: 0.08484752785350747
---
header: 
  seq: 4107
  stamp: 
    secs: 1616084957
    nsecs: 642109470
  frame_id: ''
pose: 
  xyz: 
    x: -0.20921622063589285
    y: -0.011905924931112278
    z: -0.6222275093377718
  rpy: 
    roll: 3.1123152677722397
    pitch: 0.019815102411185455
    yaw: 0.08484752785350747
---
header: 
  seq: 4108
  stamp: 
    secs: 1616084957
    nsecs: 704822504
  frame_id: ''
pose: 
  xyz: 
    x: -0.20921622063589285
    y: -0.011905924931112278
    z: -0.6222275093377718
  rpy: 
    roll: 3.1123152677722397
    pitch: 0.019815102411185455
    yaw: 0.08484752785350747
---
header: 
  seq: 4109
  stamp: 
    secs: 1616084957
    nsecs: 775080386
  frame_id: ''
pose: 
  xyz: 
    x: -0.20921622063589285
    y: -0.011905924931112278
    z: -0.6222275093377718
  rpy: 
    roll: 3.1123152677722397
    pitch: 0.019815102411185455
    yaw: 0.08484752785350747
---
header: 
  seq: 4110
  stamp: 
    secs: 1616084957
    nsecs: 837714191
  frame_id: ''
pose: 
  xyz: 
    x: -0.20921622063589285
    y: -0.011905924931112278
    z: -0.6222275093377718
  rpy: 
    roll: 3.1123152677722397
    pitch: 0.019815102411185455
    yaw: 0.08484752785350747
---
header: 
  seq: 4111
  stamp: 
    secs: 1616084957
    nsecs: 906790859
  frame_id: ''
pose: 
  xyz: 
    x: -0.20921622063589285
    y: -0.011905924931112278
    z: -0.6222275093377718
  rpy: 
    roll: 3.1123152677722397
    pitch: 0.019815102411185455
    yaw: 0.08484752785350747
---
header: 
  seq: 4112
  stamp: 
    secs: 1616084957
    nsecs: 970798394
  frame_id: ''
pose: 
  xyz: 
    x: -0.20921622063589285
    y: -0.011905924931112278
    z: -0.6222275093377718
  rpy: 
    roll: 3.1123152677722397
    pitch: 0.019815102411185455
    yaw: 0.08484752785350747
---
header: 
  seq: 4113
  stamp: 
    secs: 1616084958
    nsecs:  39773116
  frame_id: ''
pose: 
  xyz: 
    x: -0.20921622063589285
    y: -0.011905924931112278
    z: -0.6222275093377718
  rpy: 
    roll: 3.1123152677722397
    pitch: 0.019815102411185455
    yaw: 0.08484752785350747
---
header: 
  seq: 4114
  stamp: 
    secs: 1616084958
    nsecs: 107932255
  frame_id: ''
pose: 
  xyz: 
    x: -0.20921622063589285
    y: -0.011905924931112278
    z: -0.6222275093377718
  rpy: 
    roll: 3.1123152677722397
    pitch: 0.019815102411185455
    yaw: 0.08484752785350747
---
header: 
  seq: 4115
  stamp: 
    secs: 1616084958
    nsecs: 174694387
  frame_id: ''
pose: 
  xyz: 
    x: -0.20921622063589285
    y: -0.011905924931112278
    z: -0.6222275093377718
  rpy: 
    roll: 3.1123152677722397
    pitch: 0.019815102411185455
    yaw: 0.08484752785350747
---
header: 
  seq: 4116
  stamp: 
    secs: 1616084958
    nsecs: 238282538
  frame_id: ''
pose: 
  xyz: 
    x: -0.20921622063589285
    y: -0.011905924931112278
    z: -0.6222275093377718
  rpy: 
    roll: 3.1123152677722397
    pitch: 0.019815102411185455
    yaw: 0.08484752785350747
---
header: 
  seq: 4117
  stamp: 
    secs: 1616084958
    nsecs: 305891222
  frame_id: ''
pose: 
  xyz: 
    x: -0.20921622063589285
    y: -0.011905924931112278
    z: -0.6222275093377718
  rpy: 
    roll: 3.1123152677722397
    pitch: 0.019815102411185455
    yaw: 0.08484752785350747
---
header: 
  seq: 4118
  stamp: 
    secs: 1616084958
    nsecs: 372281201
  frame_id: ''
pose: 
  xyz: 
    x: -0.20921622063589285
    y: -0.011905924931112278
    z: -0.6222275093377718
  rpy: 
    roll: 3.1123152677722397
    pitch: 0.019815102411185455
    yaw: 0.08484752785350747
---
header: 
  seq: 4119
  stamp: 
    secs: 1616084958
    nsecs: 439125837
  frame_id: ''
pose: 
  xyz: 
    x: -0.20921622063589285
    y: -0.011905924931112278
    z: -0.6222275093377718
  rpy: 
    roll: 3.1123152677722397
    pitch: 0.019815102411185455
    yaw: 0.08484752785350747
---
header: 
  seq: 4120
  stamp: 
    secs: 1616084958
    nsecs: 507902307
  frame_id: ''
pose: 
  xyz: 
    x: -0.20921622063589285
    y: -0.011905924931112278
    z: -0.6222275093377718
  rpy: 
    roll: 3.1123152677722397
    pitch: 0.019815102411185455
    yaw: 0.08484752785350747
---
header: 
  seq: 4121
  stamp: 
    secs: 1616084958
    nsecs: 606101192
  frame_id: ''
pose: 
  xyz: 
    x: -0.20921622063589285
    y: -0.011905924931112278
    z: -0.6222275093377718
  rpy: 
    roll: 3.1123152677722397
    pitch: 0.019815102411185455
    yaw: 0.08484752785350747
---
header: 
  seq: 4122
  stamp: 
    secs: 1616084958
    nsecs: 671636357
  frame_id: ''
pose: 
  xyz: 
    x: -0.20921622063589285
    y: -0.011905924931112278
    z: -0.6222275093377718
  rpy: 
    roll: 3.1123152677722397
    pitch: 0.019815102411185455
    yaw: 0.08484752785350747
---
header: 
  seq: 4123
  stamp: 
    secs: 1616084958
    nsecs: 737852633
  frame_id: ''
pose: 
  xyz: 
    x: -0.20921622063589285
    y: -0.011905924931112278
    z: -0.6222275093377718
  rpy: 
    roll: 3.1123152677722397
    pitch: 0.019815102411185455
    yaw: 0.08484752785350747
---
header: 
  seq: 4124
  stamp: 
    secs: 1616084958
    nsecs: 804500719
  frame_id: ''
pose: 
  xyz: 
    x: -0.20921622063589285
    y: -0.011905924931112278
    z: -0.6222275093377718
  rpy: 
    roll: 3.1123152677722397
    pitch: 0.019815102411185455
    yaw: 0.08484752785350747
---
header: 
  seq: 4125
  stamp: 
    secs: 1616084958
    nsecs: 877315946
  frame_id: ''
pose: 
  xyz: 
    x: -0.20921622063589285
    y: -0.011905924931112278
    z: -0.6222275093377718
  rpy: 
    roll: 3.1123152677722397
    pitch: 0.019815102411185455
    yaw: 0.08484752785350747
---
header: 
  seq: 4126
  stamp: 
    secs: 1616084958
    nsecs: 976017841
  frame_id: ''
pose: 
  xyz: 
    x: -0.20921622063589285
    y: -0.011905924931112278
    z: -0.6222275093377718
  rpy: 
    roll: 3.1123152677722397
    pitch: 0.019815102411185455
    yaw: 0.08484752785350747
---
header: 
  seq: 4127
  stamp: 
    secs: 1616084959
    nsecs:  41738746
  frame_id: ''
pose: 
  xyz: 
    x: -0.20921622063589285
    y: -0.011905924931112278
    z: -0.6222275093377718
  rpy: 
    roll: 3.1123152677722397
    pitch: 0.019815102411185455
    yaw: 0.08484752785350747
---
header: 
  seq: 4128
  stamp: 
    secs: 1616084959
    nsecs: 107726364
  frame_id: ''
pose: 
  xyz: 
    x: -0.20921622063589285
    y: -0.011905924931112278
    z: -0.6222275093377718
  rpy: 
    roll: 3.1123152677722397
    pitch: 0.019815102411185455
    yaw: 0.08484752785350747
---
header: 
  seq: 4129
  stamp: 
    secs: 1616084959
    nsecs: 170401627
  frame_id: ''
pose: 
  xyz: 
    x: -0.20921622063589285
    y: -0.011905924931112278
    z: -0.6222275093377718
  rpy: 
    roll: 3.1123152677722397
    pitch: 0.019815102411185455
    yaw: 0.08484752785350747
---
header: 
  seq: 4130
  stamp: 
    secs: 1616084959
    nsecs: 237779232
  frame_id: ''
pose: 
  xyz: 
    x: -0.20921622063589285
    y: -0.011905924931112278
    z: -0.6222275093377718
  rpy: 
    roll: 3.1123152677722397
    pitch: 0.019815102411185455
    yaw: 0.08484752785350747
---
header: 
  seq: 4131
  stamp: 
    secs: 1616084959
    nsecs: 307563211
  frame_id: ''
pose: 
  xyz: 
    x: -0.20921622063589285
    y: -0.011905924931112278
    z: -0.6222275093377718
  rpy: 
    roll: 3.1123152677722397
    pitch: 0.019815102411185455
    yaw: 0.08484752785350747
---
header: 
  seq: 4132
  stamp: 
    secs: 1616084959
    nsecs: 372389143
  frame_id: ''
pose: 
  xyz: 
    x: -0.20921622063589285
    y: -0.011905924931112278
    z: -0.6222275093377718
  rpy: 
    roll: 3.1123152677722397
    pitch: 0.019815102411185455
    yaw: 0.08484752785350747
---
header: 
  seq: 4133
  stamp: 
    secs: 1616084959
    nsecs: 441254484
  frame_id: ''
pose: 
  xyz: 
    x: -0.20921622063589285
    y: -0.011905924931112278
    z: -0.6222275093377718
  rpy: 
    roll: 3.1123152677722397
    pitch: 0.019815102411185455
    yaw: 0.08484752785350747
---
header: 
  seq: 4134
  stamp: 
    secs: 1616084959
    nsecs: 506069374
  frame_id: ''
pose: 
  xyz: 
    x: -0.20921622063589285
    y: -0.011905924931112278
    z: -0.6222275093377718
  rpy: 
    roll: 3.1123152677722397
    pitch: 0.019815102411185455
    yaw: 0.08484752785350747
---
header: 
  seq: 4135
  stamp: 
    secs: 1616084959
    nsecs: 570992706
  frame_id: ''
pose: 
  xyz: 
    x: -0.20921622063589285
    y: -0.011905924931112278
    z: -0.6222275093377718
  rpy: 
    roll: 3.1123152677722397
    pitch: 0.019815102411185455
    yaw: 0.08484752785350747
---
header: 
  seq: 4136
  stamp: 
    secs: 1616084959
    nsecs: 638809477
  frame_id: ''
pose: 
  xyz: 
    x: -0.20921622063589285
    y: -0.011905924931112278
    z: -0.6222275093377718
  rpy: 
    roll: 3.1123152677722397
    pitch: 0.019815102411185455
    yaw: 0.08484752785350747
---
header: 
  seq: 4137
  stamp: 
    secs: 1616084959
    nsecs: 704581977
  frame_id: ''
pose: 
  xyz: 
    x: -0.20921622063589285
    y: -0.011905924931112278
    z: -0.6222275093377718
  rpy: 
    roll: 3.1123152677722397
    pitch: 0.019815102411185455
    yaw: 0.08484752785350747
---
header: 
  seq: 4138
  stamp: 
    secs: 1616084959
    nsecs: 770491296
  frame_id: ''
pose: 
  xyz: 
    x: -0.20921622063589285
    y: -0.011905924931112278
    z: -0.6222275093377718
  rpy: 
    roll: 3.1123152677722397
    pitch: 0.019815102411185455
    yaw: 0.08484752785350747
---
header: 
  seq: 4139
  stamp: 
    secs: 1616084959
    nsecs: 838413863
  frame_id: ''
pose: 
  xyz: 
    x: -0.20921622063589285
    y: -0.011905924931112278
    z: -0.6222275093377718
  rpy: 
    roll: 3.1123152677722397
    pitch: 0.019815102411185455
    yaw: 0.08484752785350747
---
header: 
  seq: 4140
  stamp: 
    secs: 1616084959
    nsecs: 905014353
  frame_id: ''
pose: 
  xyz: 
    x: -0.20921622063589285
    y: -0.011905924931112278
    z: -0.6222275093377718
  rpy: 
    roll: 3.1123152677722397
    pitch: 0.019815102411185455
    yaw: 0.08484752785350747
---
header: 
  seq: 4141
  stamp: 
    secs: 1616084959
    nsecs: 971398688
  frame_id: ''
pose: 
  xyz: 
    x: -0.20921622063589285
    y: -0.011905924931112278
    z: -0.6222275093377718
  rpy: 
    roll: 3.1123152677722397
    pitch: 0.019815102411185455
    yaw: 0.08484752785350747
---
header: 
  seq: 4142
  stamp: 
    secs: 1616084960
    nsecs:  38878447
  frame_id: ''
pose: 
  xyz: 
    x: -0.20921622063589285
    y: -0.011905924931112278
    z: -0.6222275093377718
  rpy: 
    roll: 3.1123152677722397
    pitch: 0.019815102411185455
    yaw: 0.08484752785350747
---
header: 
  seq: 4143
  stamp: 
    secs: 1616084960
    nsecs: 105381264
  frame_id: ''
pose: 
  xyz: 
    x: -0.20921622063589285
    y: -0.011905924931112278
    z: -0.6222275093377718
  rpy: 
    roll: 3.1123152677722397
    pitch: 0.019815102411185455
    yaw: 0.08484752785350747
---
header: 
  seq: 4144
  stamp: 
    secs: 1616084960
    nsecs: 171104762
  frame_id: ''
pose: 
  xyz: 
    x: -0.20921622063589285
    y: -0.011905924931112278
    z: -0.6222275093377718
  rpy: 
    roll: 3.1123152677722397
    pitch: 0.019815102411185455
    yaw: 0.08484752785350747
---
header: 
  seq: 4145
  stamp: 
    secs: 1616084960
    nsecs: 237834698
  frame_id: ''
pose: 
  xyz: 
    x: -0.20921622063589285
    y: -0.011905924931112278
    z: -0.6222275093377718
  rpy: 
    roll: 3.1123152677722397
    pitch: 0.019815102411185455
    yaw: 0.08484752785350747
---
header: 
  seq: 4146
  stamp: 
    secs: 1616084960
    nsecs: 306424423
  frame_id: ''
pose: 
  xyz: 
    x: -0.20921622063589285
    y: -0.011905924931112278
    z: -0.6222275093377718
  rpy: 
    roll: 3.1123152677722397
    pitch: 0.019815102411185455
    yaw: 0.08484752785350747
---
header: 
  seq: 4147
  stamp: 
    secs: 1616084960
    nsecs: 370435598
  frame_id: ''
pose: 
  xyz: 
    x: -0.20921622063589285
    y: -0.011905924931112278
    z: -0.6222275093377718
  rpy: 
    roll: 3.1123152677722397
    pitch: 0.019815102411185455
    yaw: 0.08484752785350747
---
header: 
  seq: 4148
  stamp: 
    secs: 1616084960
    nsecs: 438791868
  frame_id: ''
pose: 
  xyz: 
    x: -0.20921622063589285
    y: -0.011905924931112278
    z: -0.6222275093377718
  rpy: 
    roll: 3.1123152677722397
    pitch: 0.019815102411185455
    yaw: 0.08484752785350747
---
header: 
  seq: 4149
  stamp: 
    secs: 1616084960
    nsecs: 498195188
  frame_id: ''
pose: 
  xyz: 
    x: -0.20921622063589285
    y: -0.011905924931112278
    z: -0.6222275093377718
  rpy: 
    roll: 3.1123152677722397
    pitch: 0.019815102411185455
    yaw: 0.08484752785350747
---
header: 
  seq: 4150
  stamp: 
    secs: 1616084960
    nsecs: 566860288
  frame_id: ''
pose: 
  xyz: 
    x: -0.20921622063589285
    y: -0.011905924931112278
    z: -0.6222275093377718
  rpy: 
    roll: 3.1123152677722397
    pitch: 0.019815102411185455
    yaw: 0.08484752785350747
---
header: 
  seq: 4151
  stamp: 
    secs: 1616084960
    nsecs: 637810752
  frame_id: ''
pose: 
  xyz: 
    x: -0.20921622063589285
    y: -0.011905924931112278
    z: -0.6222275093377718
  rpy: 
    roll: 3.1123152677722397
    pitch: 0.019815102411185455
    yaw: 0.08484752785350747
---
header: 
  seq: 4152
  stamp: 
    secs: 1616084960
    nsecs: 703262916
  frame_id: ''
pose: 
  xyz: 
    x: -0.20921622063589285
    y: -0.011905924931112278
    z: -0.6222275093377718
  rpy: 
    roll: 3.1123152677722397
    pitch: 0.019815102411185455
    yaw: 0.08484752785350747
---
header: 
  seq: 4153
  stamp: 
    secs: 1616084960
    nsecs: 771610793
  frame_id: ''
pose: 
  xyz: 
    x: -0.20921622063589285
    y: -0.011905924931112278
    z: -0.6222275093377718
  rpy: 
    roll: 3.1123152677722397
    pitch: 0.019815102411185455
    yaw: 0.08484752785350747
---
header: 
  seq: 4154
  stamp: 
    secs: 1616084960
    nsecs: 839383468
  frame_id: ''
pose: 
  xyz: 
    x: -0.20921622063589285
    y: -0.011905924931112278
    z: -0.6222275093377718
  rpy: 
    roll: 3.1123152677722397
    pitch: 0.019815102411185455
    yaw: 0.08484752785350747
---
header: 
  seq: 4155
  stamp: 
    secs: 1616084960
    nsecs: 905624197
  frame_id: ''
pose: 
  xyz: 
    x: -0.20921622063589285
    y: -0.011905924931112278
    z: -0.6222275093377718
  rpy: 
    roll: 3.1123152677722397
    pitch: 0.019815102411185455
    yaw: 0.08484752785350747
---
header: 
  seq: 4156
  stamp: 
    secs: 1616084960
    nsecs: 970631473
  frame_id: ''
pose: 
  xyz: 
    x: -0.20921622063589285
    y: -0.011905924931112278
    z: -0.6222275093377718
  rpy: 
    roll: 3.1123152677722397
    pitch: 0.019815102411185455
    yaw: 0.08484752785350747
---
header: 
  seq: 4157
  stamp: 
    secs: 1616084961
    nsecs:  39227014
  frame_id: ''
pose: 
  xyz: 
    x: -0.20921622063589285
    y: -0.011905924931112278
    z: -0.6222275093377718
  rpy: 
    roll: 3.1123152677722397
    pitch: 0.019815102411185455
    yaw: 0.08484752785350747
---
header: 
  seq: 4158
  stamp: 
    secs: 1616084961
    nsecs: 106932955
  frame_id: ''
pose: 
  xyz: 
    x: -0.20921622063589285
    y: -0.011905924931112278
    z: -0.6222275093377718
  rpy: 
    roll: 3.1123152677722397
    pitch: 0.019815102411185455
    yaw: 0.08484752785350747
---
header: 
  seq: 4159
  stamp: 
    secs: 1616084961
    nsecs: 173428788
  frame_id: ''
pose: 
  xyz: 
    x: -0.20921622063589285
    y: -0.011905924931112278
    z: -0.6222275093377718
  rpy: 
    roll: 3.1123152677722397
    pitch: 0.019815102411185455
    yaw: 0.08484752785350747
---
header: 
  seq: 4160
  stamp: 
    secs: 1616084961
    nsecs: 254567470
  frame_id: ''
pose: 
  xyz: 
    x: -0.20921622063589285
    y: -0.011905924931112278
    z: -0.6222275093377718
  rpy: 
    roll: 3.1123152677722397
    pitch: 0.019815102411185455
    yaw: 0.08484752785350747
---
header: 
  seq: 4161
  stamp: 
    secs: 1616084961
    nsecs: 340302749
  frame_id: ''
pose: 
  xyz: 
    x: -0.20749297190655488
    y: -0.011580945385080645
    z: -0.6176711309509784
  rpy: 
    roll: -3.121829532223839
    pitch: 0.0262001498198476
    yaw: 0.07570156462164435
---
header: 
  seq: 4162
  stamp: 
    secs: 1616084961
    nsecs: 407777138
  frame_id: ''
pose: 
  xyz: 
    x: -0.20481192250060706
    y: -0.011612707544045734
    z: -0.6176239763247937
  rpy: 
    roll: 3.1356540339364694
    pitch: -0.007471589839903201
    yaw: 0.07479692158656892
---
header: 
  seq: 4163
  stamp: 
    secs: 1616084961
    nsecs: 474369834
  frame_id: ''
pose: 
  xyz: 
    x: -0.20157040873409274
    y: -0.01150151144638519
    z: -0.6224758649691444
  rpy: 
    roll: 3.12046447296748
    pitch: -0.041258629450097464
    yaw: 0.06462339426295016
---
header: 
  seq: 4164
  stamp: 
    secs: 1616084961
    nsecs: 540354867
  frame_id: ''
pose: 
  xyz: 
    x: -0.19506832202285915
    y: -0.011144689866400243
    z: -0.6162221565923707
  rpy: 
    roll: -3.0990809244154236
    pitch: -0.027038698883149827
    yaw: 0.07736195030525672
---
header: 
  seq: 4165
  stamp: 
    secs: 1616084961
    nsecs: 607061966
  frame_id: ''
pose: 
  xyz: 
    x: -0.18974824878629254
    y: -0.010694179461166438
    z: -0.6184457693523713
  rpy: 
    roll: -3.138894633935597
    pitch: -0.007001032342171115
    yaw: 0.07497011143780852
---
header: 
  seq: 4166
  stamp: 
    secs: 1616084961
    nsecs: 673702399
  frame_id: ''
pose: 
  xyz: 
    x: -0.18620006657199514
    y: -0.010527528329679502
    z: -0.6242530294214044
  rpy: 
    roll: 3.1251017284558196
    pitch: 0.024371774478921467
    yaw: 0.06593355574670601
---
header: 
  seq: 4167
  stamp: 
    secs: 1616084961
    nsecs: 741566923
  frame_id: ''
pose: 
  xyz: 
    x: -0.17956907897890995
    y: -0.010259484449594675
    z: -0.6188539135193654
  rpy: 
    roll: 3.125264553255262
    pitch: -0.03207588942592561
    yaw: 0.056667199374579535
---
header: 
  seq: 4168
  stamp: 
    secs: 1616084961
    nsecs: 808816899
  frame_id: ''
pose: 
  xyz: 
    x: -0.17534712543399372
    y: -0.009607172355839879
    z: -0.6242967874615143
  rpy: 
    roll: 3.1007701372808563
    pitch: -1.665885696758673e-05
    yaw: 0.06663134706666263
---
header: 
  seq: 4169
  stamp: 
    secs: 1616084961
    nsecs: 874717198
  frame_id: ''
pose: 
  xyz: 
    x: -0.16878151345038608
    y: -0.009321577209513288
    z: -0.6202673775325769
  rpy: 
    roll: -3.1215723909910977
    pitch: -0.00522583708291781
    yaw: 0.05642432523373864
---
header: 
  seq: 4170
  stamp: 
    secs: 1616084961
    nsecs: 940430072
  frame_id: ''
pose: 
  xyz: 
    x: -0.16312742836599564
    y: -0.009328361351370256
    z: -0.6205116410677188
  rpy: 
    roll: -3.1164524757992798
    pitch: -0.004788478720814696
    yaw: 0.056519470051082266
---
header: 
  seq: 4171
  stamp: 
    secs: 1616084962
    nsecs:   5745580
  frame_id: ''
pose: 
  xyz: 
    x: -0.16041871434557115
    y: -0.009029894986916769
    z: -0.6311231255971279
  rpy: 
    roll: 2.99930438816246
    pitch: -0.03248932115374488
    yaw: 0.05061984957746324
---
header: 
  seq: 4172
  stamp: 
    secs: 1616084962
    nsecs:  75103783
  frame_id: ''
pose: 
  xyz: 
    x: -0.15114477442695293
    y: -0.008568616152969043
    z: -0.6141803795690368
  rpy: 
    roll: -3.066184401311741
    pitch: -0.031212002227179167
    yaw: 0.049498935181122805
---
header: 
  seq: 4173
  stamp: 
    secs: 1616084962
    nsecs: 140743035
  frame_id: ''
pose: 
  xyz: 
    x: -0.14725484557068216
    y: -0.008353011093060312
    z: -0.6208552437607375
  rpy: 
    roll: -3.136749401578345
    pitch: 0.04194731902621795
    yaw: 0.056960086837815505
---
header: 
  seq: 4174
  stamp: 
    secs: 1616084962
    nsecs: 209371502
  frame_id: ''
pose: 
  xyz: 
    x: -0.1423720881857578
    y: -0.007943199202756329
    z: -0.6214692930374492
  rpy: 
    roll: 3.1094882852216217
    pitch: -0.009777868868828147
    yaw: 0.03637672118334789
---
header: 
  seq: 4175
  stamp: 
    secs: 1616084962
    nsecs: 272843969
  frame_id: ''
pose: 
  xyz: 
    x: -0.13662689973400252
    y: -0.00810846356413983
    z: -0.6155080159573962
  rpy: 
    roll: -3.0848994887631016
    pitch: -0.012294360739594373
    yaw: 0.027463385936576268
---
header: 
  seq: 4176
  stamp: 
    secs: 1616084962
    nsecs: 340247707
  frame_id: ''
pose: 
  xyz: 
    x: -0.13588749064699976
    y: -0.008060336593089001
    z: -0.6154912186522946
  rpy: 
    roll: -3.1168193809828306
    pitch: 0.03390841123496959
    yaw: -0.010576397062517229
---
header: 
  seq: 4177
  stamp: 
    secs: 1616084962
    nsecs: 413651678
  frame_id: ''
pose: 
  xyz: 
    x: -0.13550123240657294
    y: -0.007605264164036928
    z: -0.6146638167659036
  rpy: 
    roll: -3.0849731138665706
    pitch: 0.008930592252933831
    yaw: -0.06441291390961679
---
header: 
  seq: 4178
  stamp: 
    secs: 1616084962
    nsecs: 507277080
  frame_id: ''
pose: 
  xyz: 
    x: -0.13506889936404662
    y: -0.00782009238987747
    z: -0.6149303314736639
  rpy: 
    roll: -3.1034778174497317
    pitch: 0.029405322735676594
    yaw: -0.13318270692629053
---
header: 
  seq: 4179
  stamp: 
    secs: 1616084962
    nsecs: 574244189
  frame_id: ''
pose: 
  xyz: 
    x: -0.13516416400992723
    y: -0.008115382993875809
    z: -0.6174008934018829
  rpy: 
    roll: -3.0819503728332247
    pitch: -0.005675382331691923
    yaw: -0.17956386286683879
---
header: 
  seq: 4180
  stamp: 
    secs: 1616084962
    nsecs: 641212223
  frame_id: ''
pose: 
  xyz: 
    x: -0.1352702034142325
    y: -0.0073717858621065325
    z: -0.6181619705941318
  rpy: 
    roll: -3.1316119465703447
    pitch: 0.054677583149690734
    yaw: -0.22663160605225907
---
header: 
  seq: 4181
  stamp: 
    secs: 1616084962
    nsecs: 708564153
  frame_id: ''
pose: 
  xyz: 
    x: -0.13701880129273203
    y: -0.007773432922651138
    z: -0.6261788537486556
  rpy: 
    roll: 3.1315819735569095
    pitch: -0.009695338653450965
    yaw: -0.280991187667353
---
header: 
  seq: 4182
  stamp: 
    secs: 1616084962
    nsecs: 775590696
  frame_id: ''
pose: 
  xyz: 
    x: -0.13638102957554585
    y: -0.007983434896698914
    z: -0.6244551393033307
  rpy: 
    roll: 3.1111814404350304
    pitch: 0.0033509138177317895
    yaw: -0.32857175437740205
---
header: 
  seq: 4183
  stamp: 
    secs: 1616084962
    nsecs: 843288127
  frame_id: ''
pose: 
  xyz: 
    x: -0.1352006471489309
    y: -0.007612795640746252
    z: -0.618883315832328
  rpy: 
    roll: -3.1138037958558966
    pitch: 0.051400696881403404
    yaw: -0.3757095688599785
---
header: 
  seq: 4184
  stamp: 
    secs: 1616084962
    nsecs: 908191847
  frame_id: ''
pose: 
  xyz: 
    x: -0.13618480580569686
    y: -0.007222150716092562
    z: -0.6202002760513763
  rpy: 
    roll: 3.1323840594524857
    pitch: -0.0019226786617016212
    yaw: -0.4178956836603793
---
header: 
  seq: 4185
  stamp: 
    secs: 1616084962
    nsecs: 973471535
  frame_id: ''
pose: 
  xyz: 
    x: -0.13432413442897018
    y: -0.008351812604115008
    z: -0.6190351494346203
  rpy: 
    roll: -3.0918610545046143
    pitch: 0.006398593304259267
    yaw: -0.40567862456430404
---
header: 
  seq: 4186
  stamp: 
    secs: 1616084963
    nsecs:  41089354
  frame_id: ''
pose: 
  xyz: 
    x: -0.1306136210278148
    y: -0.009732620088606907
    z: -0.6171048535984072
  rpy: 
    roll: -3.0894518540671174
    pitch: 0.005726857022525527
    yaw: -0.3637079487601349
---
header: 
  seq: 4187
  stamp: 
    secs: 1616084963
    nsecs: 108545254
  frame_id: ''
pose: 
  xyz: 
    x: -0.12779639198585693
    y: -0.011442731003905122
    z: -0.6208980894725822
  rpy: 
    roll: 3.1267858435336318
    pitch: 0.029094952815334637
    yaw: -0.313404461514623
---
header: 
  seq: 4188
  stamp: 
    secs: 1616084963
    nsecs: 174979478
  frame_id: ''
pose: 
  xyz: 
    x: -0.12246638990824288
    y: -0.013324548837838937
    z: -0.6187209547831863
  rpy: 
    roll: -3.1029298924617503
    pitch: -0.03159064478113089
    yaw: -0.2539236891832042
---
header: 
  seq: 4189
  stamp: 
    secs: 1616084963
    nsecs: 242732800
  frame_id: ''
pose: 
  xyz: 
    x: -0.11745274803715172
    y: -0.01416313833179677
    z: -0.6157384050511129
  rpy: 
    roll: -3.0663064006098617
    pitch: -0.0036926976797721713
    yaw: -0.19716751241406727
---
header: 
  seq: 4190
  stamp: 
    secs: 1616084963
    nsecs: 310706935
  frame_id: ''
pose: 
  xyz: 
    x: -0.11346853169657516
    y: -0.015190879006238816
    z: -0.6199887896288292
  rpy: 
    roll: 3.1403037231658226
    pitch: 0.02339566957242297
    yaw: -0.15845096063621034
---
header: 
  seq: 4191
  stamp: 
    secs: 1616084963
    nsecs: 380434622
  frame_id: ''
pose: 
  xyz: 
    x: -0.10782149646773913
    y: -0.016363312441052744
    z: -0.6187341658183673
  rpy: 
    roll: 3.1269320365624815
    pitch: -0.004540843794019317
    yaw: -0.11347226848295722
---
header: 
  seq: 4192
  stamp: 
    secs: 1616084963
    nsecs: 476204645
  frame_id: ''
pose: 
  xyz: 
    x: -0.10057224808488023
    y: -0.016925716136395114
    z: -0.6214853252062876
  rpy: 
    roll: -3.0964101485555897
    pitch: -0.024393224575586257
    yaw: -0.052653044986823216
---
header: 
  seq: 4193
  stamp: 
    secs: 1616084963
    nsecs: 540498511
  frame_id: ''
pose: 
  xyz: 
    x: -0.09937528271381979
    y: -0.016880973607750958
    z: -0.6199014754946711
  rpy: 
    roll: -3.0971104252806683
    pitch: -0.024018227647916328
    yaw: -0.09020601034603759
---
header: 
  seq: 4194
  stamp: 
    secs: 1616084963
    nsecs: 607306581
  frame_id: ''
pose: 
  xyz: 
    x: -0.09868918519382543
    y: -0.01680024652654249
    z: -0.6174327105783827
  rpy: 
    roll: 3.1303441887224137
    pitch: -0.004796672854237467
    yaw: -0.13197457602565055
---
header: 
  seq: 4195
  stamp: 
    secs: 1616084963
    nsecs: 674132273
  frame_id: ''
pose: 
  xyz: 
    x: -0.09787848813012301
    y: -0.016702669909341102
    z: -0.6147420394674783
  rpy: 
    roll: -3.0636761447009575
    pitch: 0.004888177586561424
    yaw: -0.16748826367077396
---
header: 
  seq: 4196
  stamp: 
    secs: 1616084963
    nsecs: 740659771
  frame_id: ''
pose: 
  xyz: 
    x: -0.09792980335538784
    y: -0.016831075481313375
    z: -0.6185591512537861
  rpy: 
    roll: 3.129691242032692
    pitch: -0.003442536145186239
    yaw: -0.2274351227135929
---
header: 
  seq: 4197
  stamp: 
    secs: 1616084963
    nsecs: 810050781
  frame_id: ''
pose: 
  xyz: 
    x: -0.09714521467628527
    y: -0.016542122094387414
    z: -0.6160782477237453
  rpy: 
    roll: -3.0833147775433534
    pitch: -0.03453794391597527
    yaw: -0.2706797450932612
---
header: 
  seq: 4198
  stamp: 
    secs: 1616084963
    nsecs: 875520813
  frame_id: ''
pose: 
  xyz: 
    x: -0.09695401010292368
    y: -0.016693800343744524
    z: -0.6148159792356893
  rpy: 
    roll: -3.063062179195606
    pitch: 0.004351655508476651
    yaw: -0.32158097375773287
---
header: 
  seq: 4199
  stamp: 
    secs: 1616084963
    nsecs: 939686412
  frame_id: ''
pose: 
  xyz: 
    x: -0.09740899255154835
    y: -0.016904288831597676
    z: -0.6212301156428034
  rpy: 
    roll: 3.1288737132676396
    pitch: -0.0019718685709486797
    yaw: -0.3461978548513034
---
header: 
  seq: 4200
  stamp: 
    secs: 1616084964
    nsecs:   7823946
  frame_id: ''
pose: 
  xyz: 
    x: -0.09354326317514665
    y: -0.018430802266278693
    z: -0.616978633067293
  rpy: 
    roll: -3.0812140669218198
    pitch: -0.03332275243074802
    yaw: -0.32953726071633826
---
header: 
  seq: 4201
  stamp: 
    secs: 1616084964
    nsecs:  75352372
  frame_id: ''
pose: 
  xyz: 
    x: -0.08982800598577928
    y: -0.019545923585989812
    z: -0.6208180132287762
  rpy: 
    roll: 3.1306749275840198
    pitch: -0.07025993645586105
    yaw: -0.2972126830453645
---
header: 
  seq: 4202
  stamp: 
    secs: 1616084964
    nsecs: 142148206
  frame_id: ''
pose: 
  xyz: 
    x: -0.08461880071830341
    y: -0.020962962413708628
    z: -0.6150353499674539
  rpy: 
    roll: -3.0844991135167805
    pitch: -0.05294829540964688
    yaw: -0.24149306278964744
---
header: 
  seq: 4203
  stamp: 
    secs: 1616084964
    nsecs: 207746468
  frame_id: ''
pose: 
  xyz: 
    x: -0.08075129968078965
    y: -0.02263932229963968
    z: -0.6235485572145918
  rpy: 
    roll: 3.1347408727578743
    pitch: -0.005192161534530234
    yaw: -0.1905201973902544
---
header: 
  seq: 4204
  stamp: 
    secs: 1616084964
    nsecs: 279015975
  frame_id: ''
pose: 
  xyz: 
    x: -0.07530699150845858
    y: -0.02336177879156898
    z: -0.6176460846220742
  rpy: 
    roll: 3.136253206233488
    pitch: -0.005844779301071741
    yaw: -0.1318089453596163
---
header: 
  seq: 4205
  stamp: 
    secs: 1616084964
    nsecs: 344385899
  frame_id: ''
pose: 
  xyz: 
    x: -0.07057018254986593
    y: -0.023970557495985024
    z: -0.6212565251571329
  rpy: 
    roll: 3.137800144944879
    pitch: -0.006440250814673659
    yaw: -0.07578278957830098
---
header: 
  seq: 4206
  stamp: 
    secs: 1616084964
    nsecs: 408580806
  frame_id: ''
pose: 
  xyz: 
    x: -0.06528626270373496
    y: -0.024491990381325244
    z: -0.6168902668087111
  rpy: 
    roll: -3.024493767502991
    pitch: 0.0014163587890970877
    yaw: -0.025822496462132527
---
header: 
  seq: 4207
  stamp: 
    secs: 1616084964
    nsecs: 474163548
  frame_id: ''
pose: 
  xyz: 
    x: -0.05970949111028444
    y: -0.024177964787681548
    z: -0.6188770740929822
  rpy: 
    roll: 3.094152759396595
    pitch: 0.1654164389418468
    yaw: 0.025154884781097397
---
header: 
  seq: 4208
  stamp: 
    secs: 1616084964
    nsecs: 541676097
  frame_id: ''
pose: 
  xyz: 
    x: -0.05493578180005994
    y: -0.024132892789438337
    z: -0.6177630629829921
  rpy: 
    roll: 3.1000072576082904
    pitch: 0.1665220465259494
    yaw: 0.06191960511617056
---
header: 
  seq: 4209
  stamp: 
    secs: 1616084964
    nsecs: 607790476
  frame_id: ''
pose: 
  xyz: 
    x: -0.049743653708499286
    y: -0.0243585149188487
    z: -0.6188479019482782
  rpy: 
    roll: -3.0743387072061883
    pitch: -0.008311074031670074
    yaw: 0.07638031075538754
---
header: 
  seq: 4210
  stamp: 
    secs: 1616084964
    nsecs: 677186603
  frame_id: ''
pose: 
  xyz: 
    x: -0.04462307230800606
    y: -0.02425811569788676
    z: -0.6198716202633455
  rpy: 
    roll: -3.105511413148325
    pitch: -0.10327988146545088
    yaw: 0.08839121387599458
---
header: 
  seq: 4211
  stamp: 
    secs: 1616084964
    nsecs: 744938939
  frame_id: ''
pose: 
  xyz: 
    x: -0.03938376059103688
    y: -0.0237447600875102
    z: -0.6186061952191116
  rpy: 
    roll: -3.100257853383015
    pitch: -0.1052063329937698
    yaw: 0.10786845847929372
---
header: 
  seq: 4212
  stamp: 
    secs: 1616084964
    nsecs: 810937518
  frame_id: ''
pose: 
  xyz: 
    x: -0.034269938280199926
    y: -0.023283489637978192
    z: -0.6230034697089414
  rpy: 
    roll: -3.0887604321994853
    pitch: 0.056710388133455136
    yaw: 0.12415598375923831
---
header: 
  seq: 4213
  stamp: 
    secs: 1616084964
    nsecs: 870097694
  frame_id: ''
pose: 
  xyz: 
    x: -0.02884473925638136
    y: -0.022205264205033742
    z: -0.6214277933852035
  rpy: 
    roll: 3.017324312364535
    pitch: 0.11353394285294313
    yaw: 0.1500761021950241
---
header: 
  seq: 4214
  stamp: 
    secs: 1616084964
    nsecs: 934127329
  frame_id: ''
pose: 
  xyz: 
    x: -0.023996003446588
    y: -0.021943216758761604
    z: -0.6173787202110689
  rpy: 
    roll: -3.0041640107301877
    pitch: 0.03297297535507608
    yaw: 0.151693161425414
---
header: 
  seq: 4215
  stamp: 
    secs: 1616084965
    nsecs:   6501090
  frame_id: ''
pose: 
  xyz: 
    x: -0.018889251799855056
    y: -0.021358725269958155
    z: -0.6189572097131114
  rpy: 
    roll: -3.009059739704483
    pitch: -0.02848293604801923
    yaw: 0.1692274111772587
---
header: 
  seq: 4216
  stamp: 
    secs: 1616084965
    nsecs:  76452383
  frame_id: ''
pose: 
  xyz: 
    x: -0.013891316797196691
    y: -0.020777327011617493
    z: -0.6200586576216128
  rpy: 
    roll: -3.100031987731547
    pitch: -0.1302356887277349
    yaw: 0.15812596391372113
---
header: 
  seq: 4217
  stamp: 
    secs: 1616084965
    nsecs: 140323429
  frame_id: ''
pose: 
  xyz: 
    x: -0.008780463862420294
    y: -0.019963298318942384
    z: -0.6205552766231719
  rpy: 
    roll: 2.9717324162198793
    pitch: -0.03522348410330824
    yaw: 0.1507328076656722
---
header: 
  seq: 4218
  stamp: 
    secs: 1616084965
    nsecs: 208410869
  frame_id: ''
pose: 
  xyz: 
    x: -0.0036257556164747203
    y: -0.018880530679634862
    z: -0.6194624693429669
  rpy: 
    roll: 2.969539275287569
    pitch: 0.07438019361869434
    yaw: 0.17025356150839377
---
header: 
  seq: 4219
  stamp: 
    secs: 1616084965
    nsecs: 276382941
  frame_id: ''
pose: 
  xyz: 
    x: 0.0003266651612299993
    y: -0.01841112395865607
    z: -0.6202948721519823
  rpy: 
    roll: -3.011861549457012
    pitch: -0.0873955526465057
    yaw: 0.18807084600726487
---
header: 
  seq: 4220
  stamp: 
    secs: 1616084965
    nsecs: 341770445
  frame_id: ''
pose: 
  xyz: 
    x: 0.0051691803582596075
    y: -0.017941806867305492
    z: -0.6239391655283434
  rpy: 
    roll: 3.1326935923124277
    pitch: -0.006140678467674776
    yaw: 0.18983656402500282
---
header: 
  seq: 4221
  stamp: 
    secs: 1616084965
    nsecs: 411108782
  frame_id: ''
pose: 
  xyz: 
    x: 0.009766590003385324
    y: -0.017017227550903753
    z: -0.6231953021855436
  rpy: 
    roll: 3.0149345005223567
    pitch: -0.07065547665708655
    yaw: 0.18025219978969065
---
header: 
  seq: 4222
  stamp: 
    secs: 1616084965
    nsecs: 476002160
  frame_id: ''
pose: 
  xyz: 
    x: 0.013822010346837008
    y: -0.0160814749012189
    z: -0.6186933918609983
  rpy: 
    roll: -2.9694522014144202
    pitch: 0.09525802753909032
    yaw: 0.16865213595149098
---
header: 
  seq: 4223
  stamp: 
    secs: 1616084965
    nsecs: 541055648
  frame_id: ''
pose: 
  xyz: 
    x: 0.018692975151187317
    y: -0.014915826463065527
    z: -0.6218855422326321
  rpy: 
    roll: -3.081138625043617
    pitch: 0.1515364374438637
    yaw: 0.18440566548879955
---
header: 
  seq: 4224
  stamp: 
    secs: 1616084965
    nsecs: 607676721
  frame_id: ''
pose: 
  xyz: 
    x: 0.02286117284522451
    y: -0.014595613078114265
    z: -0.6220591971643227
  rpy: 
    roll: -2.98420841210645
    pitch: 0.01696800706429013
    yaw: 0.19070072375582847
---
header: 
  seq: 4225
  stamp: 
    secs: 1616084965
    nsecs: 672552682
  frame_id: ''
pose: 
  xyz: 
    x: 0.02764400674172186
    y: -0.013697357181352366
    z: -0.6177744930027322
  rpy: 
    roll: 3.011272719684891
    pitch: 0.05981112079542342
    yaw: 0.1852340325344406
---
header: 
  seq: 4226
  stamp: 
    secs: 1616084965
    nsecs: 741404615
  frame_id: ''
pose: 
  xyz: 
    x: 0.03159782101342796
    y: -0.01321642732796567
    z: -0.6240466960148512
  rpy: 
    roll: 3.125651098314585
    pitch: -0.008860277159373842
    yaw: 0.18987795387607442
---
header: 
  seq: 4227
  stamp: 
    secs: 1616084965
    nsecs: 807091266
  frame_id: ''
pose: 
  xyz: 
    x: 0.03631537442575334
    y: -0.0122709795765961
    z: -0.6240743944787036
  rpy: 
    roll: 3.124988190865038
    pitch: -0.009140535605090632
    yaw: 0.18990466423960028
---
header: 
  seq: 4228
  stamp: 
    secs: 1616084965
    nsecs: 873914021
  frame_id: ''
pose: 
  xyz: 
    x: 0.03950036897688981
    y: -0.011494947617363705
    z: -0.6186095426697243
  rpy: 
    roll: -2.917949500967112
    pitch: -0.0012842568792910802
    yaw: 0.18801112343497173
---
header: 
  seq: 4229
  stamp: 
    secs: 1616084965
    nsecs: 941709811
  frame_id: ''
pose: 
  xyz: 
    x: 0.04378760871200774
    y: -0.010555475384113838
    z: -0.6173368844516846
  rpy: 
    roll: -2.8488481474953713
    pitch: -0.008442336966899038
    yaw: 0.19603659748733815
---
header: 
  seq: 4230
  stamp: 
    secs: 1616084966
    nsecs:   8952490
  frame_id: ''
pose: 
  xyz: 
    x: 0.04818220125615445
    y: -0.009967148324475155
    z: -0.6180412765428114
  rpy: 
    roll: 3.0310751570467023
    pitch: 0.05021706270519189
    yaw: 0.18373560987287085
---
header: 
  seq: 4231
  stamp: 
    secs: 1616084966
    nsecs:  74753168
  frame_id: ''
pose: 
  xyz: 
    x: 0.05235247056477477
    y: -0.009433183222927279
    z: -0.6241942916291194
  rpy: 
    roll: 3.1238263927700394
    pitch: -0.009658775377902938
    yaw: 0.19001288999171018
---
header: 
  seq: 4232
  stamp: 
    secs: 1616084966
    nsecs: 140683053
  frame_id: ''
pose: 
  xyz: 
    x: 0.055915333823066786
    y: -0.008287346696023202
    z: -0.6200631571918531
  rpy: 
    roll: -3.119232547021514
    pitch: 0.14464972448401925
    yaw: 0.1862080031207558
---
header: 
  seq: 4233
  stamp: 
    secs: 1616084966
    nsecs: 208941826
  frame_id: ''
pose: 
  xyz: 
    x: 0.06006881398110442
    y: -0.007747260399107637
    z: -0.619233700481271
  rpy: 
    roll: -2.872171944773842
    pitch: 0.008958213532042335
    yaw: 0.1868949173150436
---
header: 
  seq: 4234
  stamp: 
    secs: 1616084966
    nsecs: 273102955
  frame_id: ''
pose: 
  xyz: 
    x: 0.06405601171031589
    y: -0.007165152399520692
    z: -0.6182440875412235
  rpy: 
    roll: 3.043575127614603
    pitch: 0.04391054422060876
    yaw: 0.18294508979385649
---
header: 
  seq: 4235
  stamp: 
    secs: 1616084966
    nsecs: 340591707
  frame_id: ''
pose: 
  xyz: 
    x: 0.0683864956492655
    y: -0.006593680696806776
    z: -0.624327327874026
  rpy: 
    roll: 3.1242315693972813
    pitch: -0.009692775393151193
    yaw: 0.19014388103972624
---
header: 
  seq: 4236
  stamp: 
    secs: 1616084966
    nsecs: 406935311
  frame_id: ''
pose: 
  xyz: 
    x: 0.07215871896878849
    y: -0.0056475759050756275
    z: -0.6243548193417118
  rpy: 
    roll: 3.12455020592238
    pitch: -0.009659996037002608
    yaw: 0.19018152362899143
---
header: 
  seq: 4237
  stamp: 
    secs: 1616084966
    nsecs: 473394311
  frame_id: ''
pose: 
  xyz: 
    x: 0.07579532011416631
    y: -0.004781657954609609
    z: -0.6229731844541516
  rpy: 
    roll: -2.9897862881112305
    pitch: 0.17367098976341713
    yaw: 0.17806447886298304
---
header: 
  seq: 4238
  stamp: 
    secs: 1616084966
    nsecs: 539094540
  frame_id: ''
pose: 
  xyz: 
    x: 0.07918386701766059
    y: -0.003962581476364756
    z: -0.6193109918712162
  rpy: 
    roll: -2.8201533492007265
    pitch: 0.0483957904171908
    yaw: 0.17853290401137412
---
header: 
  seq: 4239
  stamp: 
    secs: 1616084966
    nsecs: 607077892
  frame_id: ''
pose: 
  xyz: 
    x: 0.08347616456041962
    y: -0.003452232802833366
    z: -0.6191142296935258
  rpy: 
    roll: 3.108337318742404
    pitch: 0.02195578696950993
    yaw: 0.17743050414626893
---
header: 
  seq: 4240
  stamp: 
    secs: 1616084966
    nsecs: 676159351
  frame_id: ''
pose: 
  xyz: 
    x: 0.08736887636103828
    y: -0.002682292879136961
    z: -0.6222149100264905
  rpy: 
    roll: -2.9101736516958603
    pitch: 0.15386245050179637
    yaw: 0.15938077302201004
---
header: 
  seq: 4241
  stamp: 
    secs: 1616084966
    nsecs: 740531338
  frame_id: ''
pose: 
  xyz: 
    x: 0.09105624120443072
    y: -0.001975297315878175
    z: -0.6246662595929314
  rpy: 
    roll: -2.956415114815962
    pitch: 0.15602753642951409
    yaw: 0.17646111627686456
---
header: 
  seq: 4242
  stamp: 
    secs: 1616084966
    nsecs: 811998235
  frame_id: ''
pose: 
  xyz: 
    x: 0.09419562052571549
    y: -0.0016040046155656059
    z: -0.6185463221974775
  rpy: 
    roll: 3.0543245953169325
    pitch: -0.022750450198809842
    yaw: 0.19853507941445625
---
header: 
  seq: 4243
  stamp: 
    secs: 1616084966
    nsecs: 875807481
  frame_id: ''
pose: 
  xyz: 
    x: 0.09856076778479966
    y: -0.000910613418167516
    z: -0.6245017543739609
  rpy: 
    roll: 3.1297649443938385
    pitch: -0.009106540701951472
    yaw: 0.19044724378622058
---
header: 
  seq: 4244
  stamp: 
    secs: 1616084966
    nsecs: 940236890
  frame_id: ''
pose: 
  xyz: 
    x: 0.1012272366061466
    y: -0.00023363917975848151
    z: -0.620042124304401
  rpy: 
    roll: -2.770326329786683
    pitch: 0.023323540557757507
    yaw: 0.1838221319857245
---
header: 
  seq: 4245
  stamp: 
    secs: 1616084967
    nsecs:   7624128
  frame_id: ''
pose: 
  xyz: 
    x: 0.10404221818933952
    y: 0.000558982534574019
    z: -0.6131383123614935
  rpy: 
    roll: 3.0185524880382895
    pitch: 0.02715099840936591
    yaw: 0.19109453440549862
---
header: 
  seq: 4246
  stamp: 
    secs: 1616084967
    nsecs:  74513554
  frame_id: ''
pose: 
  xyz: 
    x: 0.10893084140477292
    y: 0.000985396060032013
    z: -0.6245091985898108
  rpy: 
    roll: 3.1332658328326275
    pitch: -0.008809697579875203
    yaw: 0.1905674481037556
---
header: 
  seq: 4247
  stamp: 
    secs: 1616084967
    nsecs: 142223330
  frame_id: ''
pose: 
  xyz: 
    x: 0.11270129715923405
    y: 0.0019325609519400871
    z: -0.624500161910051
  rpy: 
    roll: 3.1347445967467507
    pitch: -0.00872885135462446
    yaw: 0.19061795295778916
---
header: 
  seq: 4248
  stamp: 
    secs: 1616084967
    nsecs: 207563277
  frame_id: ''
pose: 
  xyz: 
    x: 0.11639456232551072
    y: 0.0024153720142524467
    z: -0.6266124105268741
  rpy: 
    roll: 3.1358962955332634
    pitch: -0.00862657694462077
    yaw: 0.1720573389607345
---
header: 
  seq: 4249
  stamp: 
    secs: 1616084967
    nsecs: 275142048
  frame_id: ''
pose: 
  xyz: 
    x: 0.11929955444272593
    y: 0.002882150670107562
    z: -0.6244758137649433
  rpy: 
    roll: 3.1375964345346317
    pitch: -0.008499704237125746
    yaw: 0.1906971018520418
---
header: 
  seq: 4250
  stamp: 
    secs: 1616084967
    nsecs: 340194021
  frame_id: ''
pose: 
  xyz: 
    x: 0.12301491094211656
    y: 0.003368333476159971
    z: -0.626578386965305
  rpy: 
    roll: 3.138913496225586
    pitch: -0.008451535560347067
    yaw: 0.17213944549402904
---
header: 
  seq: 4251
  stamp: 
    secs: 1616084967
    nsecs: 409196142
  frame_id: ''
pose: 
  xyz: 
    x: 0.12380536923476976
    y: 0.003809737821765084
    z: -0.6147047655625759
  rpy: 
    roll: 3.031767551650001
    pitch: 0.010761592905038284
    yaw: 0.17314566732121062
---
header: 
  seq: 4252
  stamp: 
    secs: 1616084967
    nsecs: 474944250
  frame_id: ''
pose: 
  xyz: 
    x: 0.12868894227438585
    y: 0.004320746771113895
    z: -0.6265320145169249
  rpy: 
    roll: -3.141439274340372
    pitch: -0.008323511910472686
    yaw: 0.1722154797720683
---
header: 
  seq: 4253
  stamp: 
    secs: 1616084967
    nsecs: 540945168
  frame_id: ''
pose: 
  xyz: 
    x: 0.12836160128032514
    y: 0.004305602081024621
    z: -0.6223037245969028
  rpy: 
    roll: 3.0685246869063434
    pitch: -0.010064668728066897
    yaw: 0.20973021708697503
---
header: 
  seq: 4254
  stamp: 
    secs: 1616084967
    nsecs: 609103404
  frame_id: ''
pose: 
  xyz: 
    x: 0.1293626843295723
    y: 0.004313056304814702
    z: -0.625211112916668
  rpy: 
    roll: -3.1398327387099525
    pitch: -0.007629248796952578
    yaw: 0.2687066852417006
---
header: 
  seq: 4255
  stamp: 
    secs: 1616084967
    nsecs: 673803978
  frame_id: ''
pose: 
  xyz: 
    x: 0.12745276295893582
    y: 0.004451698194994104
    z: -0.6182672562164828
  rpy: 
    roll: -2.6444014686520108
    pitch: 0.0779828325790036
    yaw: 0.2674941047131967
---
header: 
  seq: 4256
  stamp: 
    secs: 1616084967
    nsecs: 740257119
  frame_id: ''
pose: 
  xyz: 
    x: 0.12917271190682222
    y: 0.004508562222646591
    z: -0.6217452762175327
  rpy: 
    roll: 3.093657152851632
    pitch: -0.04075757156328524
    yaw: 0.31445311723196423
---
header: 
  seq: 4257
  stamp: 
    secs: 1616084967
    nsecs: 807284921
  frame_id: ''
pose: 
  xyz: 
    x: 0.1286077668426198
    y: 0.004318753113947427
    z: -0.6261408976350089
  rpy: 
    roll: -3.139590321713725
    pitch: -0.007359768662303017
    yaw: 0.32850638899978946
---
header: 
  seq: 4258
  stamp: 
    secs: 1616084967
    nsecs: 874423966
  frame_id: ''
pose: 
  xyz: 
    x: 0.12760705543305448
    y: 0.004037638648084139
    z: -0.6184512710183782
  rpy: 
    roll: 3.0330848869586533
    pitch: -0.03983430531641258
    yaw: 0.3321365456300551
---
header: 
  seq: 4259
  stamp: 
    secs: 1616084967
    nsecs: 942379507
  frame_id: ''
pose: 
  xyz: 
    x: 0.12830942863811431
    y: 0.004029983653892682
    z: -0.6221950352283759
  rpy: 
    roll: 3.114326426496587
    pitch: -0.04780050774654045
    yaw: 0.37564095066122927
---
header: 
  seq: 4260
  stamp: 
    secs: 1616084968
    nsecs:   8699711
  frame_id: ''
pose: 
  xyz: 
    x: 0.12903722599318856
    y: 0.004367456407249984
    z: -0.6247002023864452
  rpy: 
    roll: 3.105802330655849
    pitch: 0.040001623427062
    yaw: 0.389197978269582
---
header: 
  seq: 4261
  stamp: 
    secs: 1616084968
    nsecs:  74985069
  frame_id: ''
pose: 
  xyz: 
    x: 0.1274908650785797
    y: 0.0040826159022737925
    z: -0.6157124932369595
  rpy: 
    roll: 3.0288135236681404
    pitch: 0.017747419190466726
    yaw: 0.397413280250293
---
header: 
  seq: 4262
  stamp: 
    secs: 1616084968
    nsecs: 141861096
  frame_id: ''
pose: 
  xyz: 
    x: 0.12825197099970193
    y: 0.004259342945616328
    z: -0.6206973990048225
  rpy: 
    roll: 3.10088657687022
    pitch: -0.052940207831778774
    yaw: 0.44685590772354056
---
header: 
  seq: 4263
  stamp: 
    secs: 1616084968
    nsecs: 211216804
  frame_id: ''
pose: 
  xyz: 
    x: 0.1288734430594173
    y: 0.004385113431950615
    z: -0.6258180969261707
  rpy: 
    roll: -2.8192487362782384
    pitch: 0.22820300712768166
    yaw: 0.42038121509633397
---
header: 
  seq: 4264
  stamp: 
    secs: 1616084968
    nsecs: 275295488
  frame_id: ''
pose: 
  xyz: 
    x: 0.1280088650107656
    y: 0.004026122333610584
    z: -0.6183953976734775
  rpy: 
    roll: 3.096713878800847
    pitch: -0.03862284086550753
    yaw: 0.4748817711827247
---
header: 
  seq: 4265
  stamp: 
    secs: 1616084968
    nsecs: 340876791
  frame_id: ''
pose: 
  xyz: 
    x: 0.12901638150848568
    y: 0.004059213834270151
    z: -0.6232692680557331
  rpy: 
    roll: 3.096907578847864
    pitch: -0.03867321722915619
    yaw: 0.5002994588725374
---
header: 
  seq: 4266
  stamp: 
    secs: 1616084968
    nsecs: 408573169
  frame_id: ''
pose: 
  xyz: 
    x: 0.12780871603472238
    y: 0.004257379879301404
    z: -0.6199018372661669
  rpy: 
    roll: -2.711080968214414
    pitch: 0.21242483326269962
    yaw: 0.4903781547755186
---
header: 
  seq: 4267
  stamp: 
    secs: 1616084968
    nsecs: 474584877
  frame_id: ''
pose: 
  xyz: 
    x: 0.12811507433935646
    y: 0.0040557452675905985
    z: -0.6222324615891179
  rpy: 
    roll: -2.785624762333931
    pitch: 0.19715548639341246
    yaw: 0.5076464161399639
---
header: 
  seq: 4268
  stamp: 
    secs: 1616084968
    nsecs: 542492016
  frame_id: ''
pose: 
  xyz: 
    x: 0.12821593500737763
    y: 0.004072462097993497
    z: -0.618185089940607
  rpy: 
    roll: 3.0600966303464263
    pitch: -0.01393531025307207
    yaw: 0.5867643160014662
---
header: 
  seq: 4269
  stamp: 
    secs: 1616084968
    nsecs: 608362940
  frame_id: ''
pose: 
  xyz: 
    x: 0.12865965432577228
    y: 0.0037982536177046562
    z: -0.6203917312054023
  rpy: 
    roll: 3.102150108866035
    pitch: -0.05152731131266569
    yaw: 0.5984470911996712
---
header: 
  seq: 4270
  stamp: 
    secs: 1616084968
    nsecs: 675091102
  frame_id: ''
pose: 
  xyz: 
    x: 0.12865965432577228
    y: 0.0037982536177046562
    z: -0.6203917312054023
  rpy: 
    roll: 3.102150108866035
    pitch: -0.05152731131266569
    yaw: 0.5984470911996712
---
header: 
  seq: 4271
  stamp: 
    secs: 1616084968
    nsecs: 739403363
  frame_id: ''
pose: 
  xyz: 
    x: 0.12939609608625624
    y: 0.004105924864166098
    z: -0.6260854895579663
  rpy: 
    roll: -2.830307024037099
    pitch: 0.24474284655885545
    yaw: 0.5962056221778513
---
header: 
  seq: 4272
  stamp: 
    secs: 1616084968
    nsecs: 809158012
  frame_id: ''
pose: 
  xyz: 
    x: 0.1300554644829511
    y: 0.004038967128200924
    z: -0.6262615367464631
  rpy: 
    roll: -3.111571289448725
    pitch: -0.043650880926447394
    yaw: 0.6638567125332899
---
header: 
  seq: 4273
  stamp: 
    secs: 1616084968
    nsecs: 878434025
  frame_id: ''
pose: 
  xyz: 
    x: 0.12984108183139584
    y: 0.004119002057275076
    z: -0.6282343227652326
  rpy: 
    roll: -2.834768969427889
    pitch: 0.25309533084491725
    yaw: 0.6220800605949968
---
header: 
  seq: 4274
  stamp: 
    secs: 1616084968
    nsecs: 941467393
  frame_id: ''
pose: 
  xyz: 
    x: 0.12545718492173452
    y: 0.001451398462292663
    z: -0.6194649568590047
  rpy: 
    roll: 3.072099916357803
    pitch: -0.07507250215207263
    yaw: 0.6635127584457374
---
header: 
  seq: 4275
  stamp: 
    secs: 1616084969
    nsecs:   9051168
  frame_id: ''
pose: 
  xyz: 
    x: 0.12407639678357163
    y: 0.0005142753037925022
    z: -0.6185889311052076
  rpy: 
    roll: 3.099262590482068
    pitch: -0.05189939747195828
    yaw: 0.6655670849536792
---
header: 
  seq: 4276
  stamp: 
    secs: 1616084969
    nsecs:  79660906
  frame_id: ''
pose: 
  xyz: 
    x: 0.12335245406239964
    y: 0.000541890972765069
    z: -0.6197864549000264
  rpy: 
    roll: -2.7888824565182317
    pitch: 0.28083157230850264
    yaw: 0.6132553711520272
---
header: 
  seq: 4277
  stamp: 
    secs: 1616084969
    nsecs: 168382846
  frame_id: ''
pose: 
  xyz: 
    x: 0.12251234790441086
    y: -0.0018430208550582056
    z: -0.6264685680305875
  rpy: 
    roll: -3.1382799477125114
    pitch: -0.006818467473081866
    yaw: 0.6518034778868966
---
header: 
  seq: 4278
  stamp: 
    secs: 1616084969
    nsecs: 233695155
  frame_id: ''
pose: 
  xyz: 
    x: 0.12091063169094478
    y: -0.0025441162722164836
    z: -0.6252283405651293
  rpy: 
    roll: 3.092630728296151
    pitch: -0.03836577632018579
    yaw: 0.6359125705852147
---
header: 
  seq: 4279
  stamp: 
    secs: 1616084969
    nsecs: 309634894
  frame_id: ''
pose: 
  xyz: 
    x: 0.12126000387695943
    y: -0.0027951631858826884
    z: -0.6257798940402658
  rpy: 
    roll: 3.095276034982115
    pitch: -0.05330923819158664
    yaw: 0.6501716491083591
---
header: 
  seq: 4280
  stamp: 
    secs: 1616084969
    nsecs: 376862145
  frame_id: ''
pose: 
  xyz: 
    x: 0.12132791726980431
    y: -0.0028472043807868485
    z: -0.627394721965257
  rpy: 
    roll: 3.1303061390634555
    pitch: -0.08519797324760471
    yaw: 0.6754174400694285
---
header: 
  seq: 4281
  stamp: 
    secs: 1616084969
    nsecs: 440545103
  frame_id: ''
pose: 
  xyz: 
    x: 0.12163392238166962
    y: -0.002528003347282188
    z: -0.6299327240382445
  rpy: 
    roll: -2.8698085914118483
    pitch: 0.2633470850050621
    yaw: 0.6522460722531582
---
header: 
  seq: 4282
  stamp: 
    secs: 1616084969
    nsecs: 505839847
  frame_id: ''
pose: 
  xyz: 
    x: 0.12004735049008801
    y: -0.003189124626620172
    z: -0.6206593671731967
  rpy: 
    roll: 3.053917416403067
    pitch: -0.02607848287928842
    yaw: 0.7199855980842368
---
header: 
  seq: 4283
  stamp: 
    secs: 1616084969
    nsecs: 574199455
  frame_id: ''
pose: 
  xyz: 
    x: 0.12023341971685038
    y: -0.0032959719824961734
    z: -0.6206950355195402
  rpy: 
    roll: -3.1145971355466897
    pitch: -0.06787270017143432
    yaw: 0.7462247651882665
---
header: 
  seq: 4284
  stamp: 
    secs: 1616084969
    nsecs: 640099091
  frame_id: ''
pose: 
  xyz: 
    x: 0.12057506847071951
    y: -0.0029938019816625307
    z: -0.6224941618243548
  rpy: 
    roll: 3.122822450037992
    pitch: -0.006986371321016038
    yaw: 0.7578616802819516
---
header: 
  seq: 4285
  stamp: 
    secs: 1616084969
    nsecs: 710816378
  frame_id: ''
pose: 
  xyz: 
    x: 0.12055603063791191
    y: -0.0032516996525611998
    z: -0.62369864286829
  rpy: 
    roll: -3.13704524600231
    pitch: -0.007133410566838733
    yaw: 0.799541023517884
---
header: 
  seq: 4286
  stamp: 
    secs: 1616084969
    nsecs: 774373941
  frame_id: ''
pose: 
  xyz: 
    x: 0.12046988278417192
    y: -0.0032495667048077982
    z: -0.6232525486600617
  rpy: 
    roll: -3.136750480109558
    pitch: -0.007146809917783262
    yaw: 0.8262067123464201
---
header: 
  seq: 4287
  stamp: 
    secs: 1616084969
    nsecs: 839161573
  frame_id: ''
pose: 
  xyz: 
    x: 0.12022174976093083
    y: -0.0029299917681942286
    z: -0.6219677656981664
  rpy: 
    roll: 3.088052857466032
    pitch: 0.0441765746006804
    yaw: 0.839796654275401
---
header: 
  seq: 4288
  stamp: 
    secs: 1616084969
    nsecs: 908149552
  frame_id: ''
pose: 
  xyz: 
    x: 0.12199454761781724
    y: -0.0029947928106960654
    z: -0.6286729210377635
  rpy: 
    roll: 3.1103096460207076
    pitch: 0.019986634849749857
    yaw: 0.8831393271946306
---
header: 
  seq: 4289
  stamp: 
    secs: 1616084969
    nsecs: 975482569
  frame_id: ''
pose: 
  xyz: 
    x: 0.12127751582058556
    y: -0.002668356473143977
    z: -0.6249216735766533
  rpy: 
    roll: 3.045179449973573
    pitch: 0.05501098682795858
    yaw: 0.8983812108604653
---
header: 
  seq: 4290
  stamp: 
    secs: 1616084970
    nsecs:  41253020
  frame_id: ''
pose: 
  xyz: 
    x: 0.12162927453180618
    y: -0.00298573957018492
    z: -0.6267930029103013
  rpy: 
    roll: 3.11034065015885
    pitch: 0.019608816499362403
    yaw: 0.9098255451974627
---
header: 
  seq: 4291
  stamp: 
    secs: 1616084970
    nsecs: 106252396
  frame_id: ''
pose: 
  xyz: 
    x: 0.12080284537150525
    y: -0.002765318815123067
    z: -0.623421143916534
  rpy: 
    roll: 3.0974061908572623
    pitch: -0.05224291579550527
    yaw: 0.9454154275736314
---
header: 
  seq: 4292
  stamp: 
    secs: 1616084970
    nsecs: 173376213
  frame_id: ''
pose: 
  xyz: 
    x: 0.12024969057942964
    y: -0.002750852580980459
    z: -0.6205648610418701
  rpy: 
    roll: 3.0977381243323467
    pitch: -0.05192981459381817
    yaw: 0.971652762399096
---
header: 
  seq: 4293
  stamp: 
    secs: 1616084970
    nsecs: 242187389
  frame_id: ''
pose: 
  xyz: 
    x: 0.11964654989811033
    y: -0.003934020582292671
    z: -0.6210277038995791
  rpy: 
    roll: 3.0952455107826853
    pitch: -0.06581775359543621
    yaw: 0.9586684356256051
---
header: 
  seq: 4294
  stamp: 
    secs: 1616084970
    nsecs: 308868959
  frame_id: ''
pose: 
  xyz: 
    x: 0.11863135257534725
    y: -0.005348607419672759
    z: -0.6232272342395626
  rpy: 
    roll: 3.0980519489298195
    pitch: -0.036696451302513824
    yaw: 0.958026766092975
---
header: 
  seq: 4295
  stamp: 
    secs: 1616084970
    nsecs: 373976851
  frame_id: ''
pose: 
  xyz: 
    x: 0.1172599797600679
    y: -0.007413404372480472
    z: -0.6224208401167923
  rpy: 
    roll: 3.0840391745467732
    pitch: 0.02421350900413982
    yaw: 0.9476277840452748
---
header: 
  seq: 4296
  stamp: 
    secs: 1616084970
    nsecs: 441130034
  frame_id: ''
pose: 
  xyz: 
    x: 0.1168475609425443
    y: -0.008379605014353798
    z: -0.6237714563818513
  rpy: 
    roll: 3.0644082095626963
    pitch: -0.013390079638770027
    yaw: 0.9477981144086881
---
header: 
  seq: 4297
  stamp: 
    secs: 1616084970
    nsecs: 507405034
  frame_id: ''
pose: 
  xyz: 
    x: 0.11543001693617504
    y: -0.010334376996798967
    z: -0.6240245601554599
  rpy: 
    roll: -3.1374603152499994
    pitch: -0.00883742840426431
    yaw: 0.946941675657949
---
header: 
  seq: 4298
  stamp: 
    secs: 1616084970
    nsecs: 573840627
  frame_id: ''
pose: 
  xyz: 
    x: 0.11476589996789403
    y: -0.011484569410632415
    z: -0.622662618762225
  rpy: 
    roll: 3.1078523045028104
    pitch: -0.05576738302675793
    yaw: 0.9593455589370607
---
header: 
  seq: 4299
  stamp: 
    secs: 1616084970
    nsecs: 641723486
  frame_id: ''
pose: 
  xyz: 
    x: 0.11394213536452735
    y: -0.01121234187172189
    z: -0.6220126894706359
  rpy: 
    roll: -2.912462377853432
    pitch: 0.35626763526269767
    yaw: 0.934047460339992
---
header: 
  seq: 4300
  stamp: 
    secs: 1616084970
    nsecs: 708029805
  frame_id: ''
pose: 
  xyz: 
    x: 0.11419469906595656
    y: -0.011425950227912865
    z: -0.6195584492298791
  rpy: 
    roll: 3.1081566656568005
    pitch: -0.05592035356475603
    yaw: 0.9854823590087202
---
header: 
  seq: 4301
  stamp: 
    secs: 1616084970
    nsecs: 775904730
  frame_id: ''
pose: 
  xyz: 
    x: 0.11473336276595289
    y: -0.011721927003952455
    z: -0.6237356588606945
  rpy: 
    roll: 3.092029188091855
    pitch: -0.052784414333788554
    yaw: 1.0124360214773047
---
header: 
  seq: 4302
  stamp: 
    secs: 1616084970
    nsecs: 840632853
  frame_id: ''
pose: 
  xyz: 
    x: 0.11419829295955555
    y: -0.011941321156860587
    z: -0.6221277059310739
  rpy: 
    roll: 3.1077106869411786
    pitch: -0.05676879703963929
    yaw: 1.0272125234415073
---
header: 
  seq: 4303
  stamp: 
    secs: 1616084970
    nsecs: 909627412
  frame_id: ''
pose: 
  xyz: 
    x: 0.11484774108407714
    y: -0.012260597498105201
    z: -0.6259915132834444
  rpy: 
    roll: -3.1369450199662037
    pitch: -0.00933289489745881
    yaw: 1.057117662617924
---
header: 
  seq: 4304
  stamp: 
    secs: 1616084970
    nsecs: 976917291
  frame_id: ''
pose: 
  xyz: 
    x: 0.11376625998099317
    y: -0.012135952972417213
    z: -0.6210329088389537
  rpy: 
    roll: 3.0921365452616576
    pitch: -0.05251090718517206
    yaw: 1.0801713863183793
---
header: 
  seq: 4305
  stamp: 
    secs: 1616084971
    nsecs:  44623164
  frame_id: ''
pose: 
  xyz: 
    x: 0.11330210197329266
    y: -0.01187490081958925
    z: -0.619864403601257
  rpy: 
    roll: 3.096978510909494
    pitch: -0.03605579961441967
    yaw: 1.0931936984885313
---
header: 
  seq: 4306
  stamp: 
    secs: 1616084971
    nsecs: 109835942
  frame_id: ''
pose: 
  xyz: 
    x: 0.11403409804798324
    y: -0.012649334464380144
    z: -0.6226044672116305
  rpy: 
    roll: 3.1138207471119843
    pitch: -0.04160407604571622
    yaw: 1.1244629304973994
---
header: 
  seq: 4307
  stamp: 
    secs: 1616084971
    nsecs: 176535306
  frame_id: ''
pose: 
  xyz: 
    x: 0.11301177120068252
    y: -0.012541158061002235
    z: -0.6155790383308639
  rpy: 
    roll: 3.1334896630801348
    pitch: -0.08510017512183715
    yaw: 1.14634463103022
---
header: 
  seq: 4308
  stamp: 
    secs: 1616084971
    nsecs: 242339805
  frame_id: ''
pose: 
  xyz: 
    x: 0.11301177120068252
    y: -0.012541158061002235
    z: -0.6155790383308639
  rpy: 
    roll: 3.1334896630801348
    pitch: -0.08510017512183715
    yaw: 1.14634463103022
---
header: 
  seq: 4309
  stamp: 
    secs: 1616084971
    nsecs: 305852166
  frame_id: ''
pose: 
  xyz: 
    x: 0.11400163263218217
    y: -0.012456895370309947
    z: -0.6211535427994092
  rpy: 
    roll: -3.101888787889686
    pitch: -0.07078498004199524
    yaw: 1.1542246206627857
---
header: 
  seq: 4310
  stamp: 
    secs: 1616084971
    nsecs: 376945703
  frame_id: ''
pose: 
  xyz: 
    x: 0.11301177120068252
    y: -0.012541158061002235
    z: -0.6155790383308639
  rpy: 
    roll: 3.1334896630801348
    pitch: -0.08510017512183715
    yaw: 1.14634463103022
---
header: 
  seq: 4311
  stamp: 
    secs: 1616084971
    nsecs: 439330870
